sa2_name,state,pressure_score,erp_change_pct,growth_20yr,years_of_growth,dwellings_2526_fytd,seifa_disadvantage_score,total_dwellings_2023-24,lat,lon
Victor Harbor,SA,99.9,1.6,0.5742694426290729,22,216.0,961.0,948.0,-35.5545579,138.6234743
Beechboro,WA,99.9,4.9,1.0073934245713387,22,192.0,979.0,1456.0,-31.8695832,115.9374824
The Vines,WA,99.9,7.1,3.1719955898566705,22,156.0,1046.0,870.0,-31.75683,116.0034
Picton - Tahmoor - Buxton,NSW,99.9,5.0,0.5206886779084597,22,165.0,1016.0,2228.0,-33.3415555,115.7027399
Caboolture - South,QLD,99.9,4.0,1.350034794711204,22,238.0,877.0,968.0,-27.093826,152.9502117
Rosebud - McCrae,VIC,99.9,0.7,0.2612817595752749,19,110.0,982.0,680.0,-38.3687638,144.924944
Flagstone (West) - New Beith,QLD,99.9,7.0,6.481570996978852,22,160.0,1064.0,1468.0,-27.8160216,152.9652865
Jimboomba - Glenlogan,QLD,99.9,4.2,1.0424839822572696,22,99.0,1021.0,956.0,-27.8278309,153.0113903
Boronia Heights - Park Ridge,QLD,99.9,7.6,1.3195885590544076,22,503.130000000001,951.0,2268.0,-27.6943327,153.0272884
Beaudesert,QLD,99.9,2.8,0.6150531168570856,22,102.0,915.0,1604.0,-27.9885617,152.9961186
Mandurah - North,WA,99.9,5.3,3.603852444121389,22,503.130000000001,1011.0,1966.0,-32.5150958,115.7409691
Casuarina - Wandi,WA,99.9,9.8,3.25644551392231,22,282.0,1063.0,1310.0,-12.3737641,130.8823639
Beaconsfield - Officer,VIC,99.9,5.2,6.73602399781838,22,282.0,1056.0,1808.0,-38.0230119,145.411509
Koo Wee Rup,VIC,99.9,4.2,1.293297689516899,22,105.0,1020.0,740.0,-38.1990553,145.492854
Pakenham - North West,VIC,99.9,9.7,14.307448494453247,22,158.0,1025.0,1012.0,-38.0806283,145.4863217
Port Macquarie - West,NSW,99.9,3.0,0.8922417280155327,22,165.0,964.0,1080.0,-31.4299499,152.9103525
Wellard (West) - Bertram,WA,99.9,5.5,17.966523605150215,22,153.0,1019.0,1234.0,-32.2639959,115.8170976
Gawler - South,SA,99.9,2.0,0.5574746483480536,22,173.0,962.0,974.0,-34.6113607,138.7498301
Virginia - Waterloo Corner,SA,99.9,12.21800000000003,1.376425855513308,22,249.0,958.0,2212.0,-34.666952,138.560977
Greenvale - Bulla,VIC,99.9,4.5,1.5850668274545272,22,189.0,1033.0,1488.0,-37.6377329,144.8810975
Wonthaggi - Inverloch,VIC,99.9,1.9,0.6318563009972802,22,159.0,986.0,1366.0,-38.6303597,145.6502622
Bargara - Burnett Heads,QLD,99.9,3.4,0.8819099929128278,22,450.0,992.0,864.0,-24.8154799,152.4630414
Sunbury - South,VIC,99.9,4.9,1.023823847912405,22,350.0,1014.0,1560.0,-32.7077041,147.594012
Heidelberg West,VIC,99.9,5.4,0.2558454251560033,18,503.130000000001,962.0,1554.0,-37.7382431,145.0433922
Urangan - Wondunna,QLD,99.9,2.7,0.9829008003880668,22,141.0,941.0,868.0,-25.287209,152.8981059
Mount Barker,SA,99.9,4.6,1.375381203215969,22,336.0,1028.0,2356.0,-35.0641302,138.8586385
Sunbury,VIC,99.9,4.1,0.4403384226393076,21,152.0,1041.0,1108.0,-37.5796938,144.7295281
Morisset - Cooranbong,NSW,99.9,4.8,0.6124424694492938,22,233.0,980.0,2188.0,-33.0841249,151.4585047
Pialba - Eli Waters,QLD,99.9,3.4,1.4077562326869806,22,216.0,927.0,956.0,-25.2841693,152.8030564
Booral - River Heads,QLD,99.9,7.4,1.77,22,198.0,965.0,1064.0,-25.353777,152.8901442
Byford,WA,99.9,5.9,5.098830269754118,22,179.0,1024.0,1488.0,-32.2160061,116.01467
Dawesville - Bouvard,WA,99.9,6.2,2.556136680613668,22,77.0,991.0,680.0,-32.6342692,115.638048
Portarlington,VIC,99.9,3.4,0.9716246290801188,21,124.0,1001.0,1876.0,-38.1156562,144.6530634
Armadale - Wungong - Brookdale,WA,99.9,4.9,0.7712840865446166,18,334.0,897.0,1684.0,-32.1733554,116.0082055
Yanchep,WA,99.9,6.6,5.326281147155618,22,353.0,981.0,1040.0,-31.54847,115.6373417
Baldivis - North,WA,99.9,10.5,20.0,22,503.130000000001,1017.0,2816.0,-32.3299121,115.8218124
Albion Park - Macquarie Pass,NSW,99.9,5.0,0.9449061777054236,22,236.0,1032.0,1440.0,-34.5708425,150.7752326
Baldivis - South,WA,99.9,4.6,11.483498349834983,22,297.0,1028.0,1836.0,-32.3595563,115.7990826
Charlemont,VIC,99.9,10.2,10.907470288624788,21,288.0,1050.0,2636.0,-38.20975,144.3686705
Delacombe,VIC,99.9,10.9,2.4348977135980747,22,169.0,982.0,1968.0,-37.584019,143.8172128
Cessnock,NSW,99.9,1.2,0.2431740177245018,18,172.0,895.0,1688.0,-32.8316667,151.3511111
Cobblebank - Strathtulloh,VIC,99.9,12.21800000000003,20.0,19,134.0,1007.0,2060.0,-37.7063004,144.6025657
Leppington - Catherine Field,NSW,99.9,12.21800000000003,3.194084628670121,18,222.0,1035.0,1348.0,-33.9650028,150.8011028
Wollert,VIC,99.8,9.2,20.0,20,503.130000000001,1002.0,3739.0800000000017,-37.5939889,145.0337333
Busselton - West,WA,99.8,2.0,0.8031395842172253,22,151.0,998.0,548.0,-33.6513267,115.3427845
Collingwood Park - Redbank,QLD,99.8,4.8,1.6555806087936866,22,138.0,944.0,952.0,-27.6048928,152.8718625
Mickleham - Yuroke,VIC,99.8,10.7,20.0,21,503.130000000001,1001.0,3739.0800000000017,-37.6020865,144.8827422
Bass Hill - Georges Hall,NSW,99.8,1.5,0.2357027788964961,19,87.0,887.0,768.0,-33.8986251,150.9974484
Horsley - Kembla Grange,NSW,99.8,4.1,1.295421215577644,22,134.0,1048.0,1068.0,-34.49,150.7761111
Banjup,WA,99.8,4.3,3.23432884804726,22,119.0,1073.0,1064.0,-32.1565753,115.8878241
Wallan,VIC,99.8,8.1,2.589238347859037,22,368.0,1017.0,3588.0,-37.4168041,145.0052646
Piara Waters - Forrestdale,WA,99.8,6.2,15.625404530744335,20,306.0,1082.0,1354.0,-32.1251145,115.9178022
Lockyer Valley - East,QLD,99.8,2.7,0.7811718335480937,22,113.0,939.0,580.0,-27.680931,152.199498
Warragul,VIC,99.8,2.0,0.753731343283582,22,156.0,1010.0,682.0,-38.1588674,145.933629
Grovedale - Mount Duneed,VIC,99.8,4.2,1.0856542301629006,22,264.0,1031.0,1102.0,-38.2021549,144.3312609
Rockbank - Mount Cottrell,VIC,99.8,12.21800000000003,16.825099375354913,22,503.130000000001,1035.0,3739.0800000000017,-37.7312767,144.6607316
Manor Lakes - Quandong,VIC,99.8,4.8,20.0,22,199.0,1041.0,1696.0,-37.8686285,144.5950127
Oran Park,NSW,99.8,6.8,20.0,18,458.0,1035.0,2024.0,-33.9948805,150.7402568
Burpengary,QLD,99.8,2.8,0.6267252747252747,21,260.0,988.0,900.0,-27.1548645,152.9708226
Werribee - West,VIC,99.8,8.6,1.8965680697762608,21,503.130000000001,1007.0,3739.0800000000017,-31.7763065,116.361842
Yarrabilba,QLD,99.8,10.7,20.0,18,175.0,928.0,2344.0,-27.8030098,153.1081584
Maclean - Yamba - Iluka,NSW,99.8,2.1,0.2703342618384401,22,235.0,967.0,1500.0,-29.4566667,153.2011111
Greenbank - North Maclean,QLD,99.8,12.21800000000003,1.1123318810380751,22,394.0,1010.0,2364.0,-27.76144,152.996407
Goolwa - Port Elliot,SA,99.8,1.9,0.7064638783269962,22,100.0,965.0,632.0,-35.5087114,138.7428321
Wyndham Vale - North,VIC,99.8,10.5,8.60453216374269,22,267.0,980.0,2764.0,-37.8722432,144.6084185
Mango Hill,QLD,99.8,3.6,7.791082164328658,22,80.0,1037.0,1020.0,-27.2394237,153.0346031
Warrnambool - North,VIC,99.8,0.7,0.343790313123021,22,148.0,994.0,752.0,-33.8523849,151.2472022
Wolffdene - Bahrs Scrub,QLD,99.8,8.0,1.88328530259366,22,76.0,1026.0,900.0,-27.7826428,153.1726303
Warnervale - Wadalba,NSW,99.8,3.0,3.940110497237569,22,123.0,1002.0,1396.0,-33.2483333,151.4311111
Brabham - Henley Brook,WA,99.8,10.5,12.689982728842832,19,503.130000000001,1041.0,2636.0,-31.8283583,115.9764153
Douglas Park - Appin,NSW,99.8,5.4,1.0187429310066247,22,272.0,1074.0,1900.0,-34.19,150.7011111
Narangba,QLD,99.8,3.0,1.8804780876494025,22,177.0,1039.0,860.0,-27.2027145,152.9592212
Riverstone,NSW,99.8,9.6,1.5854694996572996,17,303.0,1022.0,3068.0,-33.6797545,150.8616695
Morayfield,QLD,99.8,7.3,0.6198955365622032,18,415.0,1019.0,2184.0,-27.1102549,152.948924
Deception Bay,QLD,99.8,1.6,0.4364867272403349,19,272.0,899.0,1924.0,-27.1931635,153.0274736
Kingswood - Werrington,NSW,99.8,4.4,0.7440384615384615,19,101.0,964.0,1728.0,-33.7579649,150.7392893
Maroochydore - Kuluin,QLD,99.8,2.4,0.6991957104557641,22,260.0,1001.0,1376.0,-26.6603562,153.0678969
Landsborough,QLD,99.8,7.4,1.8449441302248584,21,281.0,1042.0,1816.0,-26.809659,152.9907408
Albury - East,NSW,99.8,4.3,1.0307101727447217,22,106.0,1035.0,1052.0,-36.079176,146.92919
Munno Para West - Angle Vale,SA,99.8,10.9,5.225448334756618,22,503.130000000001,963.0,3739.0800000000017,-34.6572412,138.6697638
Whittlesea,VIC,99.8,12.21800000000003,1.7346938775510203,22,503.130000000001,1031.0,3739.0800000000017,-37.5121301,145.1177321
Lara,VIC,99.8,4.0,0.7568828387886204,22,340.0,1027.0,1796.0,-38.0235346,144.4088294
Two Rocks,WA,99.8,6.7,1.7434858135495075,22,273.0,986.0,724.0,-31.4955286,115.5868108
Williamtown - Medowie - Karuah,NSW,99.8,3.5,0.5341150401624966,21,91.0,1005.0,544.0,-32.815,151.8427778
Thornton - Millers Forest,NSW,99.8,5.4,1.793538913362702,22,177.0,1034.0,1360.0,-37.272738,145.8154196
Melton South - Weir Views,VIC,99.8,7.6,1.3101178469051915,16,166.0,877.0,1636.0,-37.7214595,144.5702513
White Hills - Ascot,VIC,99.8,3.0,1.5421257290991577,22,85.0,997.0,928.0,-36.7275425,144.3028267
Branxton - Greta - Pokolbin,NSW,99.8,6.9,1.0491256174075558,22,229.0,1021.0,1520.0,-32.6622131,151.3456985
Austral - Greendale,NSW,99.8,12.21800000000003,1.1695880317070448,15,503.130000000001,995.0,3739.0800000000017,-33.9282672,150.8082824
Henley Beach,SA,99.8,1.8,0.1931417044881492,18,80.0,1049.0,944.0,-34.9158802,138.4986953
Caboolture - West,QLD,99.8,5.5,0.5577342047930284,20,100.0,908.0,772.0,-27.0839336,152.9510863
Drouin,VIC,99.8,3.0,1.206010320752808,22,97.0,990.0,620.0,-38.1361683,145.8564344
Baranduda - Leneva,VIC,99.8,3.0,2.5887521968365554,22,163.0,1054.0,1332.0,-36.2354095,146.9038324
Rutherford (North) - Aberglasslyn,NSW,99.8,2.4,1.529049180327869,22,233.0,987.0,2436.0,-32.7130291,151.525869
Alkimos - Eglinton,WA,99.8,12.1,20.0,16,503.130000000001,1033.0,3739.0800000000017,-31.6154224,115.6926511
Barwon Heads - Armstrong Creek,VIC,99.8,8.5,3.256122750073768,22,267.0,1075.0,3044.0,-38.2428138,144.383003
Plympton,SA,99.7,2.1,0.3309210526315789,22,118.0,1015.0,1228.0,-34.9620679,138.554884
Edgeworth - Cameron Park,NSW,99.7,3.6,0.9579358196010408,22,65.0,1021.0,888.0,-32.9197222,151.6311111
Rosewood,QLD,99.7,3.3,0.465982028241335,17,65.0,969.0,1136.0,-35.6723934,147.8637459
Laurieton - Bonny Hills,NSW,99.7,2.5,0.413347841857091,22,64.0,978.0,892.0,-31.6508445,152.7959233
Berwick - South East,VIC,99.7,4.4,2.835666347075743,22,132.0,1059.0,1236.0,-38.0398297,145.3451089
Bohle Plains,QLD,99.7,4.2,2.742889221556886,22,172.0,1074.0,548.0,-19.288899,146.6739271
Toowoomba - West,QLD,99.7,2.1,1.2993855405935415,22,164.0,1020.0,588.0,-27.6030794,151.9303591
Rostrevor - Magill,SA,99.7,1.9,0.3447394502112565,22,116.0,1027.0,724.0,-34.8938435,138.6918266
Wangaratta,VIC,99.7,0.5,0.1729982466393921,21,90.0,964.0,706.0,-36.356434,146.3228311
Chambers Flat - Logan Reserve,QLD,99.7,12.21800000000003,3.678538247135336,22,503.130000000001,966.0,3072.0,-27.7093986,153.0936781
Cleveland,QLD,99.7,2.1,0.2856485740570377,21,113.0,1013.0,748.0,-27.5262987,153.2667298
Ripley,QLD,99.7,12.21800000000003,9.524497163486334,22,503.130000000001,1049.0,3739.0800000000017,-27.6712978,152.7804522
Caloundra West - Baringa,QLD,99.7,12.21800000000003,10.048817312531456,22,503.130000000001,1030.0,3716.0,-26.8051945,153.100046
Aldinga,SA,99.7,2.1,1.0035825173155004,22,73.0,970.0,652.0,-35.2673234,138.4831296
Cranbourne,VIC,99.7,2.3,0.6833420443515269,21,56.0,920.0,752.0,-38.0997308,145.2807256
Fraser Rise - Plumpton,VIC,99.7,12.21800000000003,20.0,21,503.130000000001,1047.0,3739.0800000000017,-37.7059863,144.7174013
Cranbourne South,VIC,99.7,12.21800000000003,4.121692019170661,21,463.0,1054.0,3739.0800000000017,-38.1577683,145.2624214
Kurri Kurri - Abermain,NSW,99.7,2.8,0.4987190435525192,21,65.0,924.0,848.0,-32.8175039,151.4833649
Tarneit (West) - Mount Cottrell,VIC,99.7,12.21800000000003,20.0,17,499.0,1025.0,2432.0,-37.8321522,144.69462
Cranbourne East - South,VIC,99.7,4.5,20.0,22,95.0,1019.0,992.0,-38.1382199,145.3073482
Gisborne,VIC,99.7,3.6,0.7043948763250883,22,95.0,1079.0,896.0,-37.486723,144.5904237
Rutherford (South) - Telarah,NSW,99.7,3.7,0.4399618805590851,20,94.0,922.0,1204.0,-32.7130291,151.525869
Diggers Rest,VIC,99.7,8.2,2.6010335917312664,17,62.0,1037.0,748.0,-37.6275995,144.7200075
Windsor Gardens,SA,99.7,1.3,0.4641095214602861,22,97.0,998.0,450.0,-34.8655403,138.6543408
Redbank Plains,QLD,99.6,3.7,2.109762824048538,21,274.0,896.0,2188.0,-27.6513182,152.8479458
Redland Bay,QLD,99.6,3.5,1.796090182648402,22,165.0,1042.0,1508.0,-27.6126945,153.3036238
Marsden Park - Shanes Park,NSW,99.6,12.21800000000003,20.0,16,257.0,1089.0,2812.0,-33.6956552,150.8147975
Cranbourne West,VIC,99.6,4.6,5.190156599552573,22,75.0,989.0,692.0,-38.102241,145.2517182
Huntingdale - Southern River,WA,99.6,3.7,1.815552341751029,22,160.0,1027.0,992.0,-37.9107647,145.1020573
Paradise - Newton,SA,99.6,1.1,0.2491625020594211,20,105.0,998.0,828.0,-34.8710706,138.6762598
Kilmore - Broadford,VIC,99.6,2.4,0.8571428571428571,22,97.0,1002.0,428.0,-37.2152885,145.0284525
Mindarie - Quinns Rocks - Jindalee,WA,99.6,3.8,1.11206743566992,20,121.0,1060.0,1614.0,-31.6897332,115.7091824
Griffith (NSW),NSW,99.6,0.8,0.1892746292677319,20,70.0,956.0,896.0,-34.2873127,146.0430799
Singleton - Golden Bay - Secret Harbour,WA,99.6,3.2,3.001885310290652,22,173.0,1036.0,566.0,-32.602355,151.1132887
Braybrook,VIC,99.6,2.4,0.6106442577030813,21,139.0,925.0,1070.0,-37.7867076,144.8548451
Altona North,VIC,99.6,3.4,0.2050427803437571,15,113.0,968.0,1562.0,-37.8378229,144.8342853
Strathalbyn,SA,99.6,2.0,0.7544910179640718,22,80.0,995.0,540.0,-35.2576239,138.8956803
Chester Hill - Sefton,NSW,99.6,1.4,0.3739708676377454,20,94.0,855.0,1020.0,-33.8834343,151.0041547
Clyde North - North,VIC,99.6,5.0,20.0,18,158.0,1066.0,716.0,-39.0335341,177.4215563
Bacchus Marsh,VIC,99.6,2.0,0.8277284918506292,22,142.0,1011.0,1164.0,-37.6751897,144.4366202
Hazelmere - Guildford,WA,99.5,7.9,1.156783607575287,22,131.0,1054.0,656.0,-31.9109095,116.0030678
The Entrance,NSW,99.5,1.2,0.3528722157092614,18,87.0,945.0,896.0,-33.3440586,151.4960171
Yarrawonga,VIC,99.5,0.8,0.6195077484047402,22,109.0,974.0,760.0,-36.0141692,146.0063494
Doncaster,VIC,99.5,3.7,0.5193836436894261,21,77.0,1027.0,1196.0,-37.7848299,145.1238431
Torquay - Scarness - Kawungan,QLD,99.5,1.0,0.3496135504028942,21,101.0,908.0,652.0,-38.3266551,144.3134076
Truganina - North,VIC,99.5,9.7,20.0,19,63.0,1040.0,1412.0,-37.8089015,144.721139
Mount Waverley - South,VIC,99.5,1.7,0.2532424039456859,18,84.0,1068.0,628.0,-33.8973497,151.2549722
Clyde North - South,VIC,99.5,12.21800000000003,20.0,21,503.130000000001,1046.0,3739.0800000000017,-33.732782,151.108066
Enfield - Blair Athol,SA,99.5,2.0,0.4179546034174955,19,187.0,904.0,1372.0,-34.8695242,138.5997114
Pinjarra,WA,99.5,3.7,1.0392706872370268,22,188.0,954.0,532.0,-32.6318966,115.869247
Gawler - North,SA,99.5,1.9,0.6707236842105263,22,153.0,1024.0,576.0,-34.622682,138.7378403
Woodford - D`Aguilar,QLD,99.5,4.2,0.8628326486872656,21,61.0,989.0,672.0,-26.9632249,152.7806176
Tarneit - North,VIC,99.5,12.21800000000003,20.0,15,455.0,1032.0,3739.0800000000017,-37.8322388,144.6985802
Oakleigh - Huntingdale,VIC,99.5,2.7,0.3119251672240802,21,147.0,1038.0,596.0,-37.9103749,145.1034302
Lilydale - Coldstream,VIC,99.5,2.5,0.2693330036471533,21,80.0,1035.0,1032.0,-37.7322072,145.3401958
Richmond - Clarendon,NSW,99.4,2.7,0.194129273113242,18,61.0,996.0,696.0,-33.6011603,150.7792786
Padstow,NSW,99.4,0.6,0.1444386217738766,16,79.0,1004.0,856.0,-33.9487767,151.030116
Point Nepean,VIC,99.4,1.6,0.2805132418936856,21,84.0,1040.0,560.0,-38.3016568,144.6527242
Penrith,NSW,99.4,2.5,0.6788555950567123,20,362.0,934.0,690.0,-33.7511954,150.6941711
Hope Island,QLD,99.4,6.0,3.5636835278858627,22,250.0,1056.0,2460.0,-43.336959,147.0423364
Gledswood Hills - Gregory Hills,NSW,99.4,7.7,20.0,15,90.0,1060.0,520.0,-34.02074,150.7635881
Nambour,QLD,99.4,2.1,0.5862517901314933,22,60.0,966.0,704.0,-26.6257326,152.959953
Gympie - South,QLD,99.4,5.6,1.0206185567010309,22,58.0,937.0,1140.0,-26.8079732,152.9595106
Mordialloc - Parkdale,VIC,99.4,1.5,0.3615483554847798,20,108.0,1072.0,444.0,-38.0054479,145.0809706
Gympie Surrounds,QLD,99.4,2.6,0.4971171895950657,22,71.0,964.0,392.0,,
Rosemeadow - Glen Alpine,NSW,99.3,2.9,0.0381936328362395,12,370.0,934.0,1352.0,-34.1066667,150.7927778
Bullsbrook,WA,99.3,5.4,0.9065902578796562,22,119.0,1009.0,456.0,-31.6637374,116.0272659
Berwick - South West,VIC,99.3,5.5,2.972670807453416,22,63.0,1044.0,732.0,-31.9813361,115.8903443
Sutherland - Kirrawee,NSW,99.3,2.0,0.3168866145973606,19,96.0,1049.0,892.0,-34.0273783,151.0781539
North Ryde - East Ryde,NSW,99.3,1.8,0.3490378234903782,22,68.0,1076.0,676.0,-33.8161974,151.1401404
Warradale,SA,99.3,2.1,0.4445812807881773,20,105.0,984.0,1328.0,-35.0073785,138.5355935
Chipping Norton - Moorebank,NSW,99.3,2.3,0.4085342271496712,18,125.0,1019.0,1224.0,-33.919687,150.9630711
Burrum - Fraser,QLD,99.3,2.1,0.9773963290278722,22,101.0,904.0,600.0,-25.1840105,152.6129695
Reservoir - North East,VIC,99.3,3.3,0.2775467775467775,19,64.0,974.0,728.0,-37.7168415,145.0069944
Mandurah - East,WA,99.3,4.2,0.8881188118811881,22,148.0,966.0,384.0,-32.2688253,115.7798931
Balwyn North,VIC,99.2,2.0,0.1185931158875695,19,79.0,1075.0,532.0,-37.7919518,145.0842372
Seaton - Grange,SA,99.2,1.3,0.1931246323769688,20,127.0,991.0,744.0,-34.8893682,138.5043617
Cobbitty - Bringelly,NSW,99.2,7.4,2.917232021709633,18,47.0,1065.0,816.0,-34.0104185,150.6922716
Victoria Point,QLD,99.2,1.9,0.3169394367367284,18,204.0,1023.0,936.0,-27.5843003,153.300364
Southern Moreton Bay Islands,QLD,99.2,5.4,1.5904613789528252,22,217.0,837.0,952.0,-27.7829015,153.4034627
Rochedale - Burbank,QLD,99.2,5.1,2.440998685939553,21,65.0,1084.0,1144.0,-27.570167,153.126907
Ermington - Rydalmere,NSW,99.2,2.2,0.4763152028533214,20,503.130000000001,1008.0,1024.0,-33.8101156,151.0600559
Bradbury - Wedderburn,NSW,99.2,0.7,0.0551478083588175,14,55.0,906.0,840.0,-34.0816667,150.8177778
Schofields - East,NSW,99.2,8.2,13.706437064370643,16,154.0,1083.0,1264.0,-33.6971603,150.8711915
Lewiston - Two Wells,SA,99.2,4.4,0.7451772095109914,22,71.0,1009.0,440.0,-34.6102778,138.5897511
Scarborough - Newport,QLD,99.2,4.7,0.7835919277963695,21,172.0,1032.0,448.0,-31.8959841,115.7592114
Highfields,QLD,99.2,1.9,1.5391669257071805,22,183.0,1082.0,464.0,-27.4517705,151.9462897
Wollongong - East,NSW,99.2,4.2,0.8218125960061444,21,273.0,1015.0,1048.0,-34.4253582,150.896673
Ingle Farm,SA,99.2,0.8,0.2674144963915908,20,88.0,954.0,468.0,-34.8275823,138.6454465
Busselton Surrounds,WA,99.1,3.4,1.1566016801394832,22,82.0,1070.0,516.0,,
Burdell - Mount Low,QLD,99.1,2.8,4.712368421052632,22,99.0,1051.0,516.0,-19.2302325,146.6974535
Moama,NSW,99.1,2.7,0.9006755066299725,22,87.0,1022.0,476.0,-36.1054404,144.758824
Payneham - Felixstow,SA,99.1,2.0,0.1978411053540587,22,64.0,1019.0,704.0,-34.8906278,138.6533791
Queanbeyan Surrounds,NSW,99.1,2.3,0.7245924045689739,21,75.0,1098.0,1040.0,,
Tamworth Surrounds,NSW,99.1,1.4,0.2106451809802844,21,111.0,998.0,648.0,,
Camberwell,VIC,99.1,1.3,0.1019727010062767,19,55.0,1097.0,672.0,-37.8384623,145.0740767
Maitland,NSW,99.1,1.8,1.4812695109261187,22,153.0,987.0,856.0,-32.7316683,151.5511123
Gingin - Dandaragan,WA,99.1,4.6,0.4210599142105991,20,96.0,983.0,436.0,-31.184878,115.7255672
Glen Waverley - East,VIC,99.1,1.1,0.0671620731822029,17,66.0,1055.0,624.0,-37.8796677,145.1629162
Hope Valley - Modbury,SA,99.1,0.8,0.1292085973412846,19,102.0,987.0,760.0,-34.8453721,138.6960181
Box Hill - Nelson,NSW,99.1,12.21800000000003,11.272030651340996,13,492.0,1106.0,3739.0800000000017,-37.8166959,145.1198034
Airlie - Whitsundays,QLD,99.0,3.5,0.9871841816184548,22,75.0,1006.0,480.0,-20.2767241,148.7276239
Canley Vale - Canley Heights,NSW,99.0,0.9,0.1485685071574642,17,50.0,778.0,1060.0,-33.8840168,150.9275405
Lidcombe,NSW,99.0,6.2,0.6710856823890594,20,66.0,943.0,348.0,-33.8630649,151.0456771
Morphettville,SA,99.0,1.2,0.3341197960270949,22,88.0,1005.0,638.0,-34.9846034,138.5430906
Ocean Grove,VIC,99.0,1.4,0.6795806372348268,21,76.0,1074.0,1096.0,-38.267045,144.52487
Umina - Booker Bay - Patonga,NSW,99.0,0.4,0.1131487581233864,18,56.0,977.0,804.0,-20.5106348,147.8254003
Flinders Park,SA,99.0,2.2,0.3643268124280782,22,162.0,1004.0,780.0,-34.9102468,138.5432009
Dandenong - North,VIC,98.9,3.9,0.3725233533646694,18,52.0,828.0,520.0,-37.9558319,145.2143234
Caboolture - East,QLD,98.9,3.1,1.796792209652012,21,111.0,882.0,856.0,-27.0787251,152.9543001
Murrumba Downs - Griffin,QLD,98.9,2.4,3.5569251840438283,22,78.0,1029.0,800.0,-27.2645498,153.0065013
Mitchell Park,SA,98.9,2.1,0.3490644648132717,22,235.0,959.0,976.0,-37.5092095,143.7772292
Eynesbury - Exford,VIC,98.9,12.21800000000003,20.0,20,215.0,1090.0,424.0,-37.7610022,144.5651267
Gordonvale - Trinity,QLD,98.9,3.7,0.7470542026708562,22,89.0,1006.0,284.0,-17.0981626,145.7759747
Gosnells,WA,98.9,2.5,0.3222153360752718,20,112.0,892.0,396.0,-32.0673135,115.9977304
Revesby,NSW,98.9,1.6,0.3495223510537446,20,101.0,980.0,840.0,-33.9436876,151.0137191
Mudgee,NSW,98.9,1.9,0.2955051629884592,16,57.0,990.0,772.0,-32.5980702,149.5886383
Box Hill North,VIC,98.8,2.1,0.2316076294277929,20,74.0,1041.0,488.0,-37.8056831,145.1295748
Balwyn,VIC,98.8,1.4,0.1076511293902598,19,49.0,1064.0,592.0,-37.8091737,145.0833678
Golden Beach - Pelican Waters,QLD,98.8,2.5,1.1822152886115445,22,66.0,1023.0,808.0,-26.8156844,153.1197588
Bentleigh - McKinnon,VIC,98.8,2.4,0.4054592130769633,21,66.0,1069.0,672.0,-37.9225042,145.0448596
Brighton (Vic.),VIC,98.8,2.3,0.1463623395149786,18,52.0,1101.0,768.0,-37.8979882,145.005243
Woodville - Cheltenham,SA,98.8,0.9,0.4156889968760847,22,156.0,956.0,872.0,-34.8795782,138.5389922
Guildford West - Merrylands West,NSW,98.8,2.7,0.3990655803088143,21,66.0,876.0,664.0,-33.8483084,150.9657421
Shepparton - North,VIC,98.8,0.7,0.2670326927876216,20,118.0,961.0,438.0,-36.322336,145.3887061
Smithfield - Wetherill Park,NSW,98.8,1.5,0.1490466948281767,16,67.0,837.0,578.0,-33.850816,150.909686
Bayswater - Embleton - Bedford,WA,98.8,1.7,0.4027697634160415,21,74.0,1037.0,352.0,-31.909036,115.9039135
Preston - East,VIC,98.7,2.6,0.3523040095751047,20,503.130000000001,1004.0,3452.0,-37.743756,145.0063017
Australind - Leschenault,WA,98.7,2.1,1.060838346594217,22,67.0,1011.0,564.0,-33.2311441,115.7254452
Blackburn,VIC,98.7,2.3,0.2273582932440911,19,80.0,1069.0,964.0,-37.8201373,145.1500496
Pallara - Willawong,QLD,98.7,9.5,14.0966796875,22,58.0,1056.0,1164.0,-27.6111011,153.0118232
Richmond (SA),SA,98.7,1.8,0.2236153949309373,21,74.0,995.0,604.0,37.7688386,-122.4705979
Davoren Park,SA,98.7,2.6,0.6854906581383605,22,70.0,792.0,1160.0,-34.6910694,138.6683869
Moss Vale - Berrima,NSW,98.7,1.4,0.2233096085409252,18,83.0,1023.0,412.0,-34.531339,150.3537874
Yeppoon,QLD,98.7,2.0,0.8047646242963205,22,39.0,1005.0,632.0,-23.1348035,150.7436625
Eastwood,NSW,98.6,1.7,0.2754777070063694,20,69.0,1028.0,1092.0,-33.79,151.0844444
Pitt Town - McGraths Hill,NSW,98.6,2.1,0.3385196710380084,18,166.0,1062.0,1220.0,-33.6144928,150.8374464
The Parks,SA,98.6,2.0,0.4144851657940663,19,67.0,876.0,674.0,-26.7984569,152.9658388
Springvale,VIC,98.6,2.5,0.2992779394331286,20,63.0,845.0,680.0,-37.9495893,145.1537826
Boronia,VIC,98.6,1.5,0.1882557802070233,20,59.0,1015.0,584.0,-37.860645,145.2848446
Ryde - North,NSW,98.6,1.7,0.257336607038466,17,87.0,1037.0,1016.0,-33.7944247,151.1215896
Palm Beach,QLD,98.6,3.9,0.3936276391554703,22,205.0,1038.0,2176.0,-33.6005473,151.3231536
Panania (North) - Milperra,NSW,98.5,1.4,0.1489613074726789,17,75.0,1021.0,680.0,-33.9543358,150.9978399
Morayfield - East,QLD,98.5,3.8,1.720630372492837,22,54.0,935.0,1472.0,-27.1167037,152.9656226
Dubbo - South,NSW,98.5,0.8,0.319010080124063,19,160.0,1004.0,1364.0,-32.2740897,148.5772734
Logan Village,QLD,98.5,3.4,0.8304248861911988,21,60.0,1025.0,652.0,-27.7675482,153.1070052
Balgownie - Fairy Meadow,NSW,98.4,0.9,0.1082448407132839,14,54.0,1007.0,620.0,-34.395368,150.8963847
Balga - Mirrabooka,WA,98.4,2.5,0.3769117212872748,19,75.0,866.0,478.0,-31.8591302,115.854986
Cashmere,QLD,98.4,2.1,2.1971894832275614,22,202.0,1080.0,540.0,-27.2988918,152.9122352
Wagga Wagga Surrounds,NSW,98.4,1.3,0.2954672245467225,19,83.0,1032.0,568.0,,
Box Hill,VIC,98.4,5.4,0.7263723459347489,21,98.0,991.0,356.0,-37.8215116,145.1261267
Mandurah - South,WA,98.4,1.9,0.6763689526847422,22,130.0,900.0,628.0,-32.5176072,115.7559725
Beckenham - Kenwick - Langford,WA,98.3,3.4,0.4267659388099856,21,96.0,949.0,300.0,-32.0215834,115.9648379
North Nowra - Bomaderry,NSW,98.3,0.4,0.0271708508107431,12,201.0,985.0,1080.0,-34.8580611,150.5827879
Wentworthville - Westmead,NSW,98.3,2.7,0.8651587989597289,22,31.0,1004.0,436.0,-33.8066667,150.9677778
Mildura - South,VIC,98.3,0.0,0.6504153481012658,22,89.0,949.0,472.0,-34.2105988,142.1248077
Mount Waverley - North,VIC,98.3,2.4,0.1888812154696132,21,75.0,1065.0,628.0,-37.8676858,145.1416637
Keilor East,VIC,98.3,1.2,0.10180577278544,16,57.0,1036.0,644.0,-37.739339,144.8591851
Glen Waverley - West,VIC,98.3,2.9,0.3463502379018219,20,143.0,1039.0,1180.0,-37.8796677,145.1629162
Gosford - Springfield,NSW,98.3,2.3,0.4065222803086881,22,33.0,983.0,500.0,-33.4250175,151.3417318
Mernda - South,VIC,98.2,3.9,20.0,19,57.0,1034.0,748.0,-37.6142369,145.0969789
Newport,VIC,98.2,2.3,0.3545232273838631,20,75.0,1075.0,660.0,-37.8423339,144.8835584
Beeliar - Wattleup,WA,98.2,4.9,1.68359461249724,21,47.0,1042.0,824.0,-32.141207,115.821758
Lalor Park - Kings Langley,NSW,98.2,0.6,0.0355473898630027,14,68.0,1002.0,404.0,-33.7567577,150.9398705
Murray Bridge,SA,98.2,1.7,0.4239994220488369,22,158.0,873.0,410.0,-35.1309451,139.2651638
Hampton,VIC,98.2,2.0,0.1985399638110688,21,80.0,1074.0,1568.0,-27.3570077,152.0692403
Wanneroo - Sinagra,WA,98.2,2.9,0.7014547754585705,20,235.0,997.0,680.0,-31.7561439,115.8061262
Macquarie Park - Marsfield,NSW,98.1,6.0,0.5982891360136869,21,503.130000000001,1043.0,3688.0,-33.7814961,151.1256747
Merrylands - Holroyd,NSW,98.1,3.8,0.4821961865380197,21,72.0,884.0,348.0,-33.8350765,150.9860379
Miranda - Yowie Bay,NSW,98.1,2.9,0.3270358306188925,21,114.0,1046.0,564.0,-34.0335434,151.1037193
Caringbah South,NSW,98.1,1.0,0.1342794759825327,17,61.0,1104.0,720.0,-34.0554491,151.1205937
Kew - West,VIC,98.1,1.7,0.0956577471559045,15,35.0,1081.0,964.0,-33.8729329,151.1812434
Tamborine - Canungra,QLD,98.1,1.4,0.5838651300123822,22,83.0,1044.0,352.0,-28.007031,153.177139
Geelong West - Hamlyn Heights,VIC,98.1,1.4,0.1890528575261604,19,39.0,1033.0,612.0,-38.1392967,144.3450387
Success - Hammond Park,WA,98.1,4.1,7.308463698355395,22,103.0,1059.0,528.0,-32.1451437,115.8495969
Noosa Hinterland,QLD,98.1,1.5,0.6107286821705427,22,31.0,1028.0,652.0,-26.3665417,152.8562344
Thornlands,QLD,98.1,2.6,1.846520874751491,22,62.0,1062.0,544.0,-27.558201,153.2666265
South West Rocks,NSW,98.0,2.3,0.4321789321789321,21,15.0,958.0,684.0,-30.8943859,153.040677
Brighton East,VIC,98.0,1.2,0.2024240735580941,21,79.0,1090.0,460.0,-37.9171728,145.0163663
Springfield Lakes,QLD,98.0,4.3,20.0,22,30.0,1043.0,2004.0,-27.6826685,152.9202698
Reservoir - South East,VIC,98.0,3.3,0.1984798756261876,19,51.0,958.0,988.0,-33.1844036,138.7570004
Nollamara - Westminster,WA,97.9,2.6,0.941629860569845,21,71.0,950.0,668.0,-31.8804371,115.843598
Panania (South) - Picnic Point,NSW,97.9,1.1,0.1861825007219174,19,66.0,1039.0,660.0,-33.9543358,150.9978399
Epping (East) - North Epping,NSW,97.9,2.2,0.5361990950226244,21,13.0,1081.0,1720.0,-37.6523847,145.0315487
Turramurra,NSW,97.9,1.1,0.1608795647052224,16,23.0,1112.0,648.0,-33.7328828,151.128541
Toorak Gardens,SA,97.9,0.5,0.1379058979456593,20,25.0,1075.0,1280.0,-34.9333315,138.6374925
Highett (East) - Cheltenham,VIC,97.8,2.3,0.3111820762368207,20,20.0,1047.0,2020.0,-37.9484438,145.04188
Rockdale - Banksia,NSW,97.8,4.5,0.4193649795661741,17,24.0,974.0,1072.0,-33.9473604,151.1401032
Mooroolbark,VIC,97.8,1.2,0.2404254231221557,20,40.0,1031.0,808.0,-37.784697,145.3131856
Bentleigh East - North,VIC,97.7,1.7,0.3937276697102024,21,148.0,1067.0,636.0,-37.9220201,145.0665529
Busselton - East,WA,97.7,1.5,0.9884989093793376,22,52.0,996.0,524.0,-33.644499,115.3488754
Malvern - Glen Iris,VIC,97.7,1.5,0.1703011983158804,20,15.0,1098.0,888.0,-37.8596152,145.0569516
Warners Bay - Boolaroo,NSW,97.7,0.9,0.2018103109012199,22,70.0,1029.0,732.0,-32.9739199,151.6489887
Ballina Surrounds,NSW,97.7,1.6,0.274726009088479,22,59.0,1028.0,592.0,,
Morley,WA,97.7,2.1,0.2759589355942591,18,68.0,993.0,476.0,-31.8934573,115.9030854
Salisbury,SA,97.7,0.7,0.2156649616368286,19,122.0,803.0,404.0,-34.7684459,138.6117546
Forster,NSW,97.6,1.1,0.1436905127417869,18,29.0,953.0,1092.0,-32.1820852,152.5131155
Traralgon - East,VIC,97.6,0.5,0.2647210477467258,22,93.0,951.0,264.0,-38.1852795,146.5880083
North Haven,SA,97.6,1.1,0.0700124774712325,18,59.0,969.0,704.0,-34.7872004,138.4905349
Clifton Beach - Kewarra Beach,QLD,97.6,1.4,0.9306748466257668,22,87.0,1036.0,532.0,-16.7725105,145.6705731
Southport - North,QLD,97.5,2.2,1.3102971665514858,22,215.0,943.0,16.0,-27.9687807,153.4066696
Spearwood,WA,97.5,3.5,0.3034882517337749,18,82.0,993.0,396.0,-32.1042971,115.7837905
Googong,NSW,97.4,12.21800000000003,20.0,21,86.0,1118.0,1864.0,-35.422209,149.2363805
West Ryde - Meadowbank,NSW,97.4,2.9,0.4557823129251701,20,44.0,1049.0,472.0,-33.8148518,151.086652
Buderim - North,QLD,97.4,2.4,0.4120042872454448,22,32.0,1048.0,728.0,-26.6685429,153.0678219
Ulladulla,NSW,97.4,0.6,0.2641194808961067,22,55.0,995.0,476.0,-35.3621503,150.4751713
Eumundi - Yandina,QLD,97.4,2.6,0.7530511555440146,22,59.0,1028.0,648.0,-26.5582223,152.9539454
Waterloo,NSW,97.4,2.5,2.3968430826369547,21,1.0,969.0,592.0,-33.9002762,151.2073137
Warilla,NSW,97.4,0.8,-0.0560649124415513,12,47.0,897.0,384.0,-34.552341,150.8594438
Brunswick - South,VIC,97.4,6.3,0.6188192668371697,20,217.0,1068.0,1436.0,-28.5405394,153.5518192
Southbank - East,VIC,97.3,3.4,5.867797808412867,21,0.0,1052.0,0.0,-31.9866262,115.8971922
Baulkham Hills - East,NSW,97.3,0.5,0.2613807657521857,20,39.0,1079.0,632.0,-33.7611198,150.9914041
Hindmarsh - Brompton,SA,97.3,0.6,0.285795851043583,22,141.0,995.0,272.0,-34.8930878,138.5770383
Ivanhoe,VIC,97.2,1.7,0.2532875929102344,20,33.0,1085.0,644.0,-37.7688774,145.0454487
Bairnsdale,VIC,97.2,-0.2,0.3070937836271832,21,63.0,951.0,606.0,-37.8254509,147.6304752
Palmerston - South,NT,97.2,4.9,20.0,13,94.0,1064.0,300.0,-34.944961,138.6048852
Pimpama - North,QLD,97.1,6.1,9.335413416536662,18,7.0,1014.0,694.0,-27.8184314,153.2974082
Fairfield,NSW,97.1,2.3,0.2783595113438045,19,40.0,721.0,296.0,-33.8674403,150.8893222
Burpengary - East,QLD,97.1,7.7,2.0765432098765437,21,32.0,1049.0,712.0,-27.1416507,152.9997532
North Kellyville,NSW,97.1,5.4,11.633727810650887,15,48.0,1107.0,532.0,-33.6859488,150.9535842
Beerwah,QLD,97.1,1.8,1.0594121325828645,22,174.0,984.0,300.0,-26.8573095,152.9604137
Rockingham,WA,97.1,2.7,0.475113845170568,19,30.0,935.0,264.0,-32.3006647,115.7393915
Midland - Guildford,WA,97.1,2.3,0.4269516948151647,20,63.0,929.0,252.0,-37.1486985,144.1666571
Cannington - Queens Park,WA,97.0,4.2,1.3716779444934786,22,47.0,982.0,552.0,-32.0134373,115.9449495
Gladesville - Huntleys Point,NSW,97.0,1.5,0.2209293482394098,20,35.0,1086.0,860.0,-33.8421553,151.1478954
Clarkson,WA,97.0,2.7,1.5138731137433068,21,115.0,985.0,378.0,-31.6906707,115.7380776
Subiaco - Shenton Park,WA,97.0,3.0,0.5088130720931991,21,177.0,1079.0,156.0,-31.9608851,115.8067842
Corrimal - Tarrawanna - Bellambi,NSW,96.9,0.7,0.0562792787011486,15,237.0,962.0,468.0,-34.3757279,150.9048557
Chermside,QLD,96.8,2.5,1.066248141417479,22,72.0,971.0,1388.0,-27.384991,153.033322
Ellenbrook,WA,96.8,2.5,2.79418064976794,22,50.0,976.0,590.0,-31.782739,115.9665616
Cronulla - Kurnell - Bundeena,NSW,96.8,1.4,0.1526409010400109,12,49.0,1077.0,1500.0,-34.0575259,151.1523851
Condon - Rasmussen,QLD,96.8,1.0,0.3241258741258741,20,117.0,916.0,96.0,-19.32994,146.7167638
Edithvale - Aspendale,VIC,96.8,1.7,0.2212633759061097,18,41.0,1073.0,940.0,-38.0321821,145.1089002
Clifton Hill - Alphington,VIC,96.8,2.9,0.4715923898879333,21,74.0,1094.0,1668.0,-37.7888763,144.9953613
Altona,VIC,96.8,2.4,0.1645393552610047,17,47.0,1040.0,940.0,-37.867169,144.8295925
Beverley,SA,96.6,2.2,0.3709700326658145,22,105.0,1006.0,700.0,-32.158288,116.7616136
Yagoona - Birrong,NSW,96.6,1.6,0.3170896404254122,20,163.0,877.0,556.0,-33.9067491,151.0243075
Fitzroy,VIC,96.6,4.3,0.4411976911976912,18,40.0,979.0,680.0,-37.8010382,144.9792611
Greenwich - Riverview,NSW,96.6,0.9,0.0493856709749481,10,319.0,1118.0,3739.0800000000017,-33.8300104,151.1855621
Surfers Paradise - North,QLD,96.6,4.1,0.9196894659349484,21,13.0,990.0,1006.0,-27.9927991,153.4292802
Croydon - East,VIC,96.6,3.5,0.3914804016844833,20,20.0,1004.0,468.0,-37.7965144,145.2568168
Broome,WA,96.6,1.4,0.4788270649303342,19,45.0,993.0,302.0,-17.9566909,122.2240181
Edmondson Park,NSW,96.6,8.0,20.0,17,42.0,1047.0,540.0,-33.9628336,150.8563294
Fremantle,WA,96.5,4.2,0.5492010757791489,22,55.0,1039.0,132.0,-32.0534086,115.7586172
Upper Coomera - North,QLD,96.5,1.5,4.182532127558305,22,61.0,999.0,468.0,-27.8529809,153.2982761
Concord - Mortlake - Cabarita,NSW,96.5,1.0,0.5373230789116525,20,30.0,1071.0,480.0,-33.8556716,151.1067667
Denman Prospect,ACT,96.4,12.21800000000003,20.0,7,381.0,1113.0,2664.0,-35.2945757,149.0270241
Glenelg (SA),SA,96.4,1.3,0.1434250278263635,19,80.0,1047.0,304.0,-34.9800892,138.5163001
Seaford (Vic.),VIC,96.4,1.8,0.111637347767253,18,51.0,997.0,592.0,-38.119156,145.1467551
Sorell - Richmond,TAS,96.4,1.8,0.6091971240263631,22,54.0,1000.0,436.0,-42.7885865,147.6670832
Old Bar - Manning Point - Red Head,NSW,96.3,1.5,0.7144526684846124,22,61.0,1010.0,600.0,-31.9526029,152.5551274
Palmwoods,QLD,96.3,3.2,0.6380999627930051,22,30.0,1029.0,692.0,-26.692799,152.9608607
Camillo - Champion Lakes,WA,96.3,4.1,0.1907059874888293,15,108.0,901.0,526.0,-32.112701,116.0031528
Doncaster East - South,VIC,96.3,2.5,0.4027532947200537,21,55.0,1030.0,1148.0,-37.7788744,145.1638815
St Marys - North St Marys,NSW,96.3,3.7,0.3886110903798791,22,50.0,895.0,572.0,-33.7614134,150.7820661
Rothwell - Kippa-Ring,QLD,96.3,-0.2,0.3866907889561866,15,296.0,937.0,68.0,-27.2153199,153.0478394
Cabramatta West - Mount Pritchard,NSW,96.2,1.2,0.1669499527856468,17,46.0,815.0,476.0,-33.8970093,150.9128236
Andergrove - Beaconsfield,QLD,96.2,1.2,0.3235732789072925,22,49.0,980.0,372.0,-21.097549,149.1768866
Gympie - North,QLD,96.2,0.4,0.2815283442936818,21,105.0,893.0,274.0,-26.1595375,152.683051
Punchbowl,NSW,96.1,1.4,0.2018368333422847,18,37.0,847.0,296.0,-33.928717,151.0522591
Edwardstown,SA,96.1,0.9,0.2484868313430394,20,37.0,985.0,460.0,-34.9802157,138.5694275
Upper Mount Gravatt,QLD,96.1,2.8,0.6075039914848324,22,103.0,1006.0,1296.0,-27.5557025,153.0807674
Armidale,NSW,96.0,0.1,0.0616891597736177,17,59.0,978.0,1220.0,-30.5144881,151.6656564
Bentleigh East - South,VIC,96.0,2.1,0.2501904358865848,20,32.0,1076.0,664.0,-37.9221088,145.083111
Southport - South,QLD,95.9,1.1,0.431383819514298,21,136.0,968.0,304.0,-27.9724106,153.4154689
Broadmeadows,VIC,95.9,3.1,0.2192447229551451,14,38.0,789.0,874.0,-37.6830526,144.9194859
Port Melbourne Industrial,VIC,95.9,4.7,20.0,19,389.0,1084.0,3739.0800000000017,-37.8308777,144.9278154
Goulburn,NSW,95.8,1.2,0.1791156050510227,18,137.0,957.0,240.0,-34.7523871,149.7198009
Doveton,VIC,95.8,2.2,0.2700287898342102,17,67.0,832.0,404.0,-37.9887542,145.2385975
Nerang - Mount Nathan,QLD,95.7,1.4,0.4542551805030627,19,36.0,991.0,256.0,-27.9685757,153.2981312
Prahran - Windsor,VIC,95.7,3.2,0.2616191452167098,17,70.0,1076.0,3216.0,-37.8519747,144.9912853
Nowra,NSW,95.7,1.3,0.67428854594365,22,30.0,919.0,348.0,-34.8741198,150.6004709
Reservoir - South West,VIC,95.7,2.9,0.2474905380944545,19,57.0,1003.0,570.0,-33.8991078,151.1245648
Caulfield - North,VIC,95.6,2.2,0.2903667790893761,21,23.0,1085.0,3324.0,-37.870828,145.0218005
Kallangur,QLD,95.6,1.5,0.5514608233731739,22,12.0,946.0,416.0,-27.2508529,152.9927887
Prospect,SA,95.6,0.8,0.2425051944197091,20,97.0,1055.0,336.0,-34.8827359,138.5928622
Yarraville,VIC,95.5,1.4,0.2918721170669636,20,73.0,1077.0,344.0,-37.8157385,144.8899709
Epping (NSW) - West,NSW,95.5,1.6,0.5272090307512651,19,20.0,1061.0,352.0,-33.8052684,151.1511496
Indooroopilly,QLD,95.5,3.5,0.5091308252669394,21,51.0,1064.0,180.0,-27.5065612,152.9822777
Toongabbie - Constitution Hill,NSW,95.5,1.7,0.2437777198017219,20,49.0,1020.0,396.0,-33.797399,150.9801193
Ashfield - South,NSW,95.4,2.4,0.316359918200409,19,3.0,1009.0,1040.0,-33.8870769,151.1253541
Yokine - Coolbinia - Menora,WA,95.4,1.7,0.3333094144661309,21,50.0,1043.0,340.0,-31.90171,115.8525017
Eaton - Pelican Point,WA,95.4,1.1,0.8752824858757062,22,80.0,1003.0,312.0,-33.3126472,115.7006193
Boonah,QLD,95.4,0.9,0.3911269226744794,22,111.0,996.0,380.0,-27.991084,152.6962154
Kogarah,NSW,95.3,5.1,0.9020801623541348,22,61.0,1005.0,84.0,-33.968226,151.1354509
Burleigh Heads,QLD,95.3,2.4,0.3385055124540629,21,46.0,1040.0,356.0,-28.1021343,153.4395799
Lennox Head - Skennars Head,NSW,95.3,3.2,0.6236348818255909,22,32.0,1071.0,700.0,-28.8228897,153.6010642
Summerland Point - Gwandalan,NSW,95.2,2.4,0.4689889549702634,22,61.0,981.0,388.0,-33.1467501,151.5739189
Carlton,VIC,95.1,11.7,1.5136411332633788,20,0.0,962.0,0.0,-37.8004228,144.9684343
Fairfield - West,NSW,95.1,1.3,0.3478154448659895,20,75.0,785.0,560.0,-33.8689308,150.9243383
Blacktown (North) - Marayong,NSW,95.1,1.1,0.2721458457860131,18,70.0,956.0,404.0,-33.7401885,150.8648355
Seaford - Seaford Meadows,SA,95.1,1.8,0.9905400078833267,20,116.0,991.0,592.0,-35.1803482,138.4897717
Greystanes - South,NSW,95.0,1.0,0.0389243614931237,15,64.0,1009.0,448.0,-33.828883,150.952044
Docklands,VIC,95.0,4.5,20.0,21,503.130000000001,1044.0,0.0,-37.8175423,144.9394923
Bundaberg Surrounds - South,QLD,95.0,2.8,0.5433600828371732,20,76.0,926.0,344.0,,
Caulfield - South,VIC,95.0,1.7,0.2135320074183027,20,25.0,1086.0,768.0,-37.894699,145.0249323
Frankston,VIC,94.9,2.6,0.1173554463923565,16,125.0,972.0,308.0,-38.1457064,145.1263742
Augustine Heights - Brookwater,QLD,94.9,2.7,20.0,22,71.0,1090.0,44.0,-27.660554,152.8792482
Margaret River,WA,94.9,3.6,1.03128802363984,22,93.0,1034.0,436.0,-33.9531776,115.0769369
Knoxfield - Scoresby,VIC,94.7,0.7,0.2944952050139696,17,35.0,1052.0,380.0,-37.8828919,145.2571379
Coomera,QLD,94.7,3.3,10.441346153846156,22,20.0,1002.0,596.0,-27.84883,153.3296968
Burwood (NSW),NSW,94.7,3.9,0.9784431137724552,22,11.0,940.0,1212.0,-33.8859527,151.0930653
Dromana,VIC,94.7,1.6,0.630321665089877,22,50.0,1026.0,768.0,-38.3418285,144.9655838
Byron Bay,NSW,94.7,1.6,0.2137759515570934,16,52.0,1029.0,456.0,-28.6483333,153.6177778
Moorabbin - Heatherton,VIC,94.6,3.0,0.4971472629144179,20,17.0,1048.0,652.0,-37.9474369,145.0797731
Lockyer Valley - West,QLD,94.5,2.1,0.4271227991976822,22,59.0,1009.0,260.0,-27.680931,152.199498
Gymea - Grays Point,NSW,94.5,1.0,0.1078239173052931,19,45.0,1093.0,500.0,-34.0341447,151.085653
Mermaid Beach - Broadbeach,QLD,94.5,3.6,0.7417654808959157,20,399.0,1037.0,3739.0800000000017,-28.0367569,153.4332442
Bondi Beach - North Bondi,NSW,94.5,2.4,0.1475651996740016,18,55.0,1095.0,376.0,-33.8923133,151.2753137
Hawthorn - South,VIC,94.5,4.2,0.3060156931124673,20,24.0,1087.0,28.0,-34.9759652,138.6106331
Halls Head - Erskine,WA,94.4,2.4,0.9001204404679972,22,37.0,997.0,176.0,-32.5558396,115.6970469
Wagga Wagga - South,NSW,94.4,0.5,0.2705115565779384,20,27.0,961.0,560.0,-35.125778,147.329744
Bentley - Wilson - St James,WA,94.4,4.2,0.4296655298270807,18,59.0,971.0,344.0,-32.0084461,115.9065455
Lawnton,QLD,94.3,3.6,0.4784795975405254,21,58.0,962.0,352.0,-27.2826166,152.9808511
Warwick,QLD,94.3,0.6,0.2089038533482977,19,86.0,922.0,192.0,-28.2163204,152.0327039
Shepparton - South East,VIC,94.3,-0.1,0.1093013864584735,16,55.0,854.0,536.0,-36.3831633,145.3988874
Ringwood East,VIC,94.2,1.9,0.1852674941731259,18,47.0,1048.0,428.0,-37.811709,145.2500979
West Lakes,SA,94.2,0.7,0.0522689632328585,15,155.0,1027.0,208.0,-34.8759925,138.4982893
Christies Beach,SA,94.2,0.9,0.1605642256902761,19,79.0,946.0,356.0,-35.1395801,138.4697587
Uraidla - Summertown,SA,94.1,2.0,0.2120981548411641,21,9.0,1087.0,236.0,-34.9571359,138.7456739
Capalaba,QLD,94.0,0.8,0.0933981137467847,15,35.0,1007.0,352.0,-27.522037,153.1918063
Chatswood - East,NSW,94.0,3.2,0.797068676716918,20,4.0,1029.0,128.0,-24.8581773,152.3796069
Bundamba,QLD,94.0,2.9,0.3901540979135415,22,25.0,921.0,812.0,-27.6044365,152.8114881
Peregian Springs,QLD,93.9,2.5,20.0,22,4.0,1046.0,28.0,-26.4949465,153.0681201
Noosaville,QLD,93.9,2.0,0.4456962595763857,18,14.0,1043.0,888.0,-26.4248421,153.05751
Claymore - Eagle Vale - Raby,NSW,93.9,0.7,-0.1013359114079803,7,151.0,939.0,160.0,-34.0469444,150.81
Wahroonga (East) - Warrawee,NSW,93.8,0.1,0.1157849620377173,14,139.0,1116.0,324.0,-33.7183413,151.1174435
Gungahlin,ACT,93.7,3.4,20.0,22,1.0,1045.0,4.0,-35.1788782,149.123653
Pascoe Vale,VIC,93.7,2.8,0.4160073738382364,19,55.0,1041.0,1416.0,-37.7308567,144.928195
Balcatta - Hamersley,WA,93.7,2.4,0.1899143800984291,15,42.0,1019.0,344.0,-31.8709062,115.8198022
Homebush,NSW,93.7,3.4,2.1223382612233825,22,0.0,998.0,2436.0,-33.860451,151.0806118
Belconnen,ACT,93.7,2.0,2.2827754532775453,22,420.0,1041.0,3739.0800000000017,-35.2274338,149.0431454
Huskisson - Vincentia,NSW,93.6,0.8,0.3683634373289545,21,57.0,1053.0,340.0,-35.0384877,150.670708
Northgate - Northfield,SA,93.5,1.8,1.7195936543278598,22,87.0,1010.0,280.0,-27.3908162,153.0693526
Strathfieldsaye,VIC,93.5,1.9,1.7765417170495768,22,64.0,1079.0,276.0,-36.8054885,144.3630432
Belmont - Ascot - Redcliffe,WA,93.5,2.2,0.5381566820276498,21,29.0,981.0,140.0,-27.5147784,153.1268563
Eagle Farm - Pinkenba,QLD,93.5,4.1,6.949367088607595,14,171.0,1077.0,0.0,-27.4355287,153.1153372
Upper Caboolture,QLD,93.4,1.8,0.633887349953832,20,323.0,1048.0,180.0,-27.1162759,152.9014219
Calamvale - Stretton,QLD,93.4,2.7,0.9101732427688316,22,33.0,1028.0,304.0,-27.6109771,153.0498924
Pagewood - Hillsdale - Daceyville,NSW,93.3,1.8,0.4785490701528264,18,11.0,991.0,364.0,-33.9390664,151.2199363
Brunswick - North,VIC,93.3,3.8,0.294086355173331,20,11.0,1054.0,28.0,-33.2444233,115.8440942
East Brisbane,QLD,93.3,1.3,0.379010556820534,21,9.0,1047.0,20.0,-27.483124,153.0464312
Willow Vale - Pimpama (West),QLD,93.3,4.8,13.170896785109983,22,44.0,1022.0,296.0,-27.8417192,153.2686268
Mannum,SA,93.3,1.2,0.169760377995275,18,62.0,914.0,416.0,-34.9134482,139.3125775
Worongary - Tallai,QLD,93.3,1.0,0.2597659004371739,22,44.0,1054.0,256.0,-28.0531757,153.3280147
Parramatta - North,NSW,93.2,7.1,2.842708611037057,21,2.0,1018.0,3739.0800000000017,-33.8083541,151.0140147
Coolum Beach,QLD,93.1,1.6,0.5761988683795566,22,42.0,1039.0,288.0,-26.53284,153.0697206
Lindfield - Roseville,NSW,93.1,1.3,0.2228855246191317,16,58.0,1109.0,500.0,-33.775698,151.1688652
Heidelberg - Rosanna,VIC,93.1,1.9,0.3209433078244573,19,32.0,1075.0,292.0,-37.7470363,145.0579844
Pakenham - North East,VIC,93.0,2.2,1.8226779252110976,21,54.0,979.0,726.0,-38.0806283,145.4863217
Nedlands - Dalkeith - Crawley,WA,93.0,3.9,0.1772796188000866,15,52.0,1101.0,472.0,-31.9799209,115.8057167
West Pennant Hills,NSW,93.0,0.1,-0.0532607050991072,13,33.0,1118.0,2092.0,-33.7478359,151.0350621
Erskineville - Alexandria,NSW,92.9,2.3,1.2928416485900216,21,113.0,1103.0,72.0,-33.9025634,151.1891942
Kilsyth,VIC,92.9,3.2,0.2326252597552528,19,47.0,1010.0,292.0,-37.8037844,145.3134593
Albert Park,VIC,92.8,1.8,0.3893604980192416,20,2.0,1084.0,3739.0800000000017,-37.8452062,144.957105
Glenroy - East,VIC,92.8,2.0,0.3039443155452436,19,63.0,945.0,486.0,-34.8539897,138.5381443
Fitzroy North,VIC,92.7,2.5,0.2328631749168987,20,41.0,1066.0,20.0,-37.7833316,144.9837074
Sylvania - Taren Point,NSW,92.7,0.5,0.124235006119951,16,41.0,1065.0,492.0,-34.0141205,151.0988161
North Coogee,WA,92.6,7.9,20.0,18,75.0,1100.0,256.0,-32.0930018,115.7593892
Lockleys,SA,92.6,1.4,0.2296443713766548,20,44.0,1026.0,320.0,-34.9250195,138.5309544
Newcastle - Cooks Hill,NSW,92.5,3.6,0.6861702127659575,22,5.0,1048.0,3732.0,-32.9294982,151.7728091
Stirling - Osborne Park,WA,92.5,1.8,0.6499020921364527,21,46.0,1045.0,196.0,-31.9002419,115.811584
Pennant Hills - Cheltenham,NSW,92.5,0.5,0.1479216336684979,17,39.0,1103.0,176.0,-33.7384663,151.0716639
Whitlam,ACT,92.4,12.21800000000003,20.0,7,79.0,0.0,2240.0,-35.2780956,149.0363976
Miami,QLD,92.4,3.3,0.4065301979360514,22,44.0,1044.0,540.0,-28.069175,153.4350824
South Melbourne,VIC,92.4,3.2,0.5198258618661019,19,248.0,1029.0,16.0,-37.83344,144.9570533
Liverpool - West,NSW,92.3,3.8,0.279903689053229,18,37.0,795.0,600.0,-33.92124,150.831328
Nelson Bay Peninsula,NSW,92.3,0.3,0.2572145545796738,19,39.0,1002.0,280.0,-35.240191,136.9793891
Campbelltown - Woodbine,NSW,92.2,2.8,0.942670594792579,22,38.0,953.0,372.0,-34.0476695,150.8284862
Rhodes,NSW,92.2,2.0,14.474660074165635,17,0.0,1057.0,8.0,-33.8290589,151.0873578
Dakabin,QLD,92.0,3.0,7.589928057553957,22,51.0,979.0,0.0,-27.2275114,152.9845805
Dalyellup,WA,92.0,2.3,20.0,22,84.0,1012.0,326.0,-33.410681,115.6131353
Daylesford,VIC,91.9,1.6,0.2494513533284564,20,33.0,1028.0,304.0,-37.3414775,144.1465866
Blacktown (East) - Kings Park,NSW,91.9,1.7,0.3915311445228597,19,33.0,951.0,176.0,-33.7401885,150.8648355
Mount Gravatt,QLD,91.9,1.9,0.3362692670651148,22,37.0,1035.0,292.0,-27.5386205,153.072934
Granville - Clyde,NSW,91.9,2.3,0.5122350090854028,20,41.0,867.0,160.0,-33.8533341,151.0117222
Geelong,VIC,91.9,0.6,0.1500209292591042,20,9.0,1016.0,2144.0,-38.1493248,144.3598241
Goodwood - Millswood,SA,91.8,0.7,0.0825400579435936,17,95.0,1066.0,144.0,-34.9559093,138.5838117
Hurstville - Central,NSW,91.8,5.9,1.172250267706899,21,6.0,931.0,12.0,-33.9673964,151.1025768
Port Melbourne,VIC,91.7,0.6,0.548514306676449,18,3.0,1052.0,100.0,-37.8333613,144.9219203
Paralowie,SA,91.7,0.9,0.1997922212843322,22,128.0,888.0,184.0,-34.7570514,138.6081109
Point Cook - South,VIC,91.6,1.7,20.0,21,21.0,1072.0,524.0,-37.9312312,144.7543721
Waterford West,QLD,91.6,2.0,0.509772565742715,21,20.0,876.0,28.0,-27.6910154,153.125553
Casula,NSW,91.6,0.5,0.4564840499306519,20,44.0,936.0,308.0,-33.9522222,150.8952778
Brighton (SA),SA,91.5,1.0,0.201956139680599,22,48.0,1048.0,360.0,-35.0210817,138.5229821
South Morang - South,VIC,91.5,2.4,1.6764950166112955,20,2.0,1021.0,1136.0,-37.649244,145.067245
Tamworth - West,NSW,91.5,1.3,0.345374817289622,22,52.0,813.0,132.0,-31.0923006,150.9196728
Holsworthy - Wattle Grove,NSW,91.4,0.4,0.1774800708591674,18,53.0,1064.0,312.0,-33.9597307,150.9502719
St Albans - North,VIC,91.3,1.2,0.0995183750392629,16,37.0,825.0,288.0,-37.76772,144.8176194
Lurnea - Cartwright,NSW,91.3,2.1,0.2891325071496664,20,54.0,770.0,344.0,-33.9358333,150.8972222
Maribyrnong,VIC,91.3,3.0,1.3135777666164403,21,87.0,1045.0,176.0,-37.7695144,144.8902049
Richmond (South) - Cremorne,VIC,91.3,2.9,0.3526763733558416,19,10.0,1106.0,292.0,-33.8242891,151.2296362
Rowville - Central,VIC,91.2,0.2,-0.0235243001675873,11,52.0,1054.0,284.0,-37.9239267,145.2447672
Kialla,VIC,91.2,3.9,1.3928994082840236,22,57.0,1042.0,472.0,-36.445075,145.4064578
Swansea - Caves Beach,NSW,91.2,1.1,0.1697144401405279,18,35.0,1001.0,272.0,-33.1034838,151.6402053
Unley - Parkside,SA,91.1,1.1,0.1295783317943983,19,34.0,1068.0,268.0,-34.9506574,138.6253274
Sunshine Beach,QLD,91.1,2.5,0.1642164529246168,16,15.0,1058.0,456.0,-26.4051292,153.1117838
Narre Warren - South West,VIC,91.1,1.2,0.2698660530857096,21,33.0,953.0,178.0,-38.0275167,145.3037408
Clayton - Central,VIC,91.1,5.9,0.7034896895535917,21,53.0,983.0,660.0,-41.1626994,146.2322463
Para Hills,SA,91.0,0.8,0.0580813275732016,18,72.0,959.0,332.0,-34.8117394,138.6556036
Castle Hill - Central,NSW,91.0,8.0,0.3901135604542418,19,304.0,1079.0,204.0,-33.7317524,151.0069279
St Agnes - Ridgehaven,SA,90.9,0.2,0.0589163183216342,18,53.0,1024.0,422.0,-34.824665,138.7090736
Glen Iris - East,VIC,90.8,1.8,0.160304333443599,19,36.0,1116.0,216.0,-37.855814,145.0646117
Bowen,QLD,90.8,3.2,0.3714179382210644,19,16.0,919.0,160.0,-20.012125,148.2462901
Kangaroo Flat - Golden Square,VIC,90.7,0.8,0.2757696659322337,21,35.0,952.0,200.0,-36.806233,144.2407867
West End,QLD,90.4,4.0,1.9785019621225048,22,346.0,1051.0,1084.0,-27.4832994,153.0075017
Crows Nest - Waverton,NSW,90.4,1.6,0.1652800887409872,17,17.0,1105.0,88.0,-33.8345848,151.2008593
Cannon Hill,QLD,90.4,2.0,0.9479459045674916,21,17.0,1078.0,100.0,-27.472393,153.0927423
West Wallsend - Barnsley - Killingworth,NSW,90.2,1.0,0.1556589147286821,16,18.0,995.0,388.0,-32.9032721,151.5818517
St Ives,NSW,90.2,1.4,0.2505502971604667,17,32.0,1109.0,220.0,-33.7292063,151.159396
Ipswich - East,QLD,90.1,1.5,0.1601275134870034,19,12.0,910.0,496.0,-27.6064915,152.7760411
Margate - Woody Point,QLD,90.0,1.4,0.1857856536902629,19,85.0,947.0,864.0,-27.2455338,153.1114858
Murarrie,QLD,90.0,2.2,0.8348134991119005,22,2.0,1068.0,176.0,-27.44912,153.1060534
Beachmere - Sandstone Point,QLD,89.9,1.3,0.8971520687802257,22,35.0,962.0,236.0,-27.1303586,153.0520041
Victoria Park - Lathlain - Burswood,WA,89.8,3.4,0.6569978245105149,21,34.0,1049.0,92.0,-37.799123,144.99443
Sydenham - Tempe - St Peters,NSW,89.8,2.0,0.3138740344622697,19,9.0,1056.0,68.0,-33.9147428,151.1661069
Nunawading,VIC,89.8,2.3,0.2372358331774827,18,30.0,1041.0,228.0,-37.820503,145.1751332
Strathmore,VIC,89.8,1.3,0.1831655164611381,18,26.0,1089.0,468.0,-17.442097,142.5765522
Watson,ACT,89.8,1.5,0.8799160985841636,22,8.0,1083.0,146.0,-35.2348235,149.1594458
Raceview,QLD,89.7,2.0,0.6636670416197975,17,24.0,966.0,232.0,-27.6360785,152.7773823
Shellharbour - Oak Flats,NSW,89.7,2.1,0.0776718120145511,17,31.0,981.0,316.0,-34.5651299,150.8191239
Ormiston,QLD,89.7,2.3,0.3456382358655527,21,11.0,1063.0,340.0,-27.5070155,153.259893
Drummoyne - Rodd Point,NSW,89.4,1.8,0.1140289037715897,13,28.0,1090.0,380.0,-33.8520678,151.153689
Surrey Hills (West) - Canterbury,VIC,89.4,0.3,0.0174888735661004,17,25.0,1103.0,196.0,-37.8271881,145.0978326
Glenroy - West,VIC,89.4,2.4,0.4761831355017727,20,16.0,996.0,360.0,-37.7059763,144.9086853
Darra - Sumner,QLD,89.3,2.4,0.3436076119002948,16,7.0,954.0,236.0,-27.568054,152.9542605
Mosman Park - Peppermint Grove,WA,89.2,2.3,0.2049540551338393,18,19.0,1069.0,108.0,-32.0046186,115.7597718
Kingscliff - Fingal Head,NSW,89.1,1.2,0.7830166549378372,22,67.0,1029.0,504.0,-28.2566667,153.5761111
Cranbourne North - East,VIC,89.0,0.7,20.0,22,1.0,1013.0,4.0,-38.1177554,145.3194587
Yass Surrounds,NSW,88.9,1.8,0.5980142874440005,22,46.0,1086.0,260.0,,
Wooloowin - Lutwyche,QLD,88.9,2.4,0.5285372306916971,21,162.0,1070.0,56.0,-27.416809,153.036587
Asquith - Mount Colah,NSW,88.9,1.9,0.2823211727102391,18,14.0,1085.0,252.0,-33.6826776,151.1159283
Labrador,QLD,88.8,0.8,0.3466179411156312,19,17.0,937.0,136.0,-27.9427642,153.3987125
Oatlands - Dundas Valley,NSW,88.8,1.3,0.2620996790883489,18,274.0,1004.0,556.0,-42.3018682,147.3728654
Walkerville,SA,88.5,1.6,0.2239851343624928,21,22.0,1075.0,148.0,-34.8944851,138.6118707
Cloverdale,WA,88.5,2.7,0.5460772104607721,22,43.0,964.0,226.0,-31.9624358,115.9447482
Ringwood,VIC,88.4,1.6,0.2765099798452636,18,152.0,1014.0,244.0,-37.8158726,145.2291113
Kingsbury,VIC,88.4,6.9,1.055710764174199,18,6.0,1012.0,524.0,-37.715569,145.0355601
Wolli Creek,NSW,88.4,4.1,8.995145631067961,21,0.0,1041.0,0.0,-33.9285225,151.1539888
Frenchs Forest - Oxford Falls,NSW,88.3,1.3,0.0709163830821584,18,25.0,1112.0,164.0,-33.7479954,151.2292718
McKail - Willyung,WA,88.3,1.5,0.594668400520156,22,45.0,960.0,176.0,-34.9918242,117.8444264
Eagleby,QLD,88.1,1.8,0.7104698306701646,18,36.0,854.0,92.0,-27.7030065,153.2181428
Doncaster East - North,VIC,88.1,1.1,0.0723981900452488,13,16.0,1059.0,356.0,-37.7934078,145.064092
Putney,NSW,88.1,-0.7,0.0234948604992657,12,31.0,1113.0,244.0,-33.826067,151.1064224
Korora - Emerald Beach,NSW,87.9,1.9,0.6105247510034191,22,50.0,1053.0,160.0,-30.2584535,153.1340791
Wantirna,VIC,87.8,0.8,-0.0069227636758517,14,37.0,1045.0,2828.0,-37.8523357,145.2259721
Glendale - Cardiff - Hillsborough,NSW,87.7,0.8,0.1063153310104529,18,35.0,1017.0,260.0,-23.242033,150.4568404
Flemington,VIC,87.6,5.2,0.2761656746031746,16,2.0,929.0,80.0,-37.7867587,144.9193668
Yeronga,QLD,87.6,1.6,0.4943541724042963,22,14.0,1072.0,140.0,-27.5133345,153.0117745
Tweed Heads,NSW,87.4,1.3,0.2509697895850476,22,105.0,973.0,228.0,-28.1786639,153.5369986
Grafton,NSW,87.4,0.6,0.0651939073133844,13,18.0,907.0,72.0,-29.69125,152.9333435
Raymond Terrace,NSW,87.4,0.8,0.1215997647404793,17,19.0,897.0,124.0,-32.7610569,151.7462299
Taigum - Fitzgibbon,QLD,87.4,2.4,1.3338962235185754,22,65.0,991.0,92.0,-27.3361653,153.0429009
Albany Creek,QLD,86.9,1.5,0.1423666138404648,16,30.0,1087.0,396.0,-27.353639,152.9684713
Cape York,QLD,86.9,1.9,0.282004277421326,17,8.0,786.0,70.0,-10.6871474,142.5315554
Sunshine North,VIC,86.8,2.4,0.1932436301173776,17,32.0,865.0,1772.0,-37.7639467,144.8361969
Sunnybank Hills,QLD,86.5,2.3,0.2245858433734939,17,20.0,982.0,180.0,-27.5991376,153.0486182
Coburg - East,VIC,86.4,3.1,0.4233160093753184,20,11.0,1027.0,464.0,-27.5325749,153.2744424
Abbotsford,VIC,86.3,2.8,1.4801252710190316,21,1.0,1077.0,632.0,-37.8045508,144.9988542
Redhead,NSW,86.3,-0.6,0.1112099644128113,17,6.0,1043.0,296.0,-33.0111111,151.7077778
Robina - East,QLD,86.1,2.3,0.7747306562193927,22,22.0,1047.0,12.0,-28.0705635,153.3916396
Fremantle - South,WA,86.0,2.2,0.2729255999398179,15,14.0,1023.0,116.0,-32.0737266,115.7589856
Bayswater,VIC,85.8,2.1,0.2401901388759437,20,24.0,1004.0,292.0,-31.909036,115.9039135
Thomastown,VIC,85.7,1.7,-0.0890584113185789,10,38.0,885.0,392.0,-37.6832672,145.0081104
Pascoe Vale South,VIC,85.6,2.3,0.2293598733318254,19,16.0,1069.0,180.0,-37.7434265,144.9384767
Ashwood - Chadstone,VIC,85.5,1.6,0.4442912300055157,21,47.0,1033.0,292.0,-37.866672,145.1022346
Niddrie - Essendon West,VIC,84.4,1.7,0.3424796747967479,21,53.0,1067.0,524.0,-37.7294529,144.8768285
Newtown (Vic.),VIC,84.4,0.5,0.0656777493606138,19,9.0,1073.0,224.0,-38.1469741,144.3430871
Coffs Harbour - South,NSW,84.2,0.2,0.3347393087287639,21,28.0,929.0,208.0,-30.3178121,153.0858034
Sorrento - Marmion,WA,84.0,2.4,0.0831609025519755,14,17.0,1104.0,100.0,-31.8292783,115.745412
Terrigal - North Avoca,NSW,83.8,1.4,0.3026748797569825,21,21.0,1078.0,84.0,-33.4483315,151.4427717
Airport West,VIC,82.9,2.2,0.235781651900543,17,58.0,1026.0,392.0,-37.7222576,144.8834942
South Morang - North,VIC,82.5,1.5,20.0,19,28.0,1051.0,208.0,-37.649244,145.067245
Inala - Richlands,QLD,82.0,1.5,0.5873393268444906,22,65.0,758.0,288.0,-27.5800151,152.9641097
Mundijong,WA,81.6,3.6,0.8459954233409611,22,128.0,1040.0,276.0,-32.2958316,115.9851981
Boyne Island - Tannum Sands,QLD,81.4,1.3,0.3530685001273236,21,29.0,994.0,94.0,-23.951343,151.3693572
Ingleburn,NSW,81.3,0.5,0.1844084166954122,18,81.0,964.0,328.0,-33.9983333,150.8511111
Wurtulla - Birtinya,QLD,81.2,1.6,1.090941833243292,20,179.0,1029.0,1640.0,-26.755654,153.1280208
Burwood (Vic.),VIC,81.0,6.4,0.521105220228385,21,93.0,1010.0,276.0,-37.8494416,145.1199206
Merewether - The Junction,NSW,80.9,0.5,0.1244495064540622,18,21.0,1083.0,284.0,-32.9370537,151.7593876
Bundaberg East - Kalkie,QLD,80.5,0.0,0.4635098852819136,21,17.0,942.0,20.0,-24.8534048,152.3840597
Footscray,VIC,80.5,4.0,0.7948119325551232,21,15.0,987.0,272.0,-37.7981339,144.897345
Lowood,QLD,79.9,1.5,0.5994339029248349,21,32.0,941.0,456.0,-27.4684925,152.5652517
East Bendigo - Kennington,VIC,79.1,0.3,0.1056532366159426,16,21.0,1002.0,228.0,-36.765198,144.2909243
Chirnside Park,VIC,78.9,0.9,0.4199591280653951,21,9.0,1060.0,80.0,-37.9047634,144.6530424
Ashcroft - Busby - Miller,NSW,78.8,0.6,0.0761736049601417,15,60.0,705.0,412.0,-33.915,150.9011111
Thornbury,VIC,78.1,1.9,0.1715424752301108,19,51.0,1048.0,400.0,-37.7549944,144.9985944
Riverview,QLD,77.8,0.2,-0.0212831585441085,11,0.0,773.0,8.0,-33.823207,151.1600134
Coolangatta,QLD,77.7,2.4,0.5673460345591493,22,107.0,1000.0,176.0,-28.1703323,153.5304637
Maddington - Orange Grove - Martin,WA,77.7,3.7,0.5254629629629629,21,25.0,924.0,540.0,-32.0493729,115.982936
Avondale Heights,VIC,76.8,2.0,0.0834811998310097,15,40.0,1008.0,508.0,-37.7614537,144.862141
Mitcham (Vic.),VIC,76.7,0.9,0.2276399915688892,21,83.0,1062.0,224.0,-37.8193282,145.2137064
Sandringham - Black Rock,VIC,76.4,0.9,0.2487355366174738,19,18.0,1094.0,924.0,-37.9621131,145.0188197
South Hurstville - Blakehurst,NSW,76.1,1.7,0.2722933698785502,21,34.0,1011.0,228.0,-33.9811753,151.1084088
Kangaroo Point,QLD,74.9,4.1,1.1271655652795145,22,7.0,1058.0,0.0,-27.473864,153.0367847
Innaloo - Doubleview,WA,72.3,2.1,0.6472774276942963,22,45.0,1047.0,392.0,-31.8937756,115.7957972
Cabramatta - Lansvale,NSW,72.1,1.1,0.0372797684909354,15,39.0,737.0,256.0,-33.9026963,150.9476103
Liverpool - East,NSW,71.5,4.3,1.1674294837679615,22,1.0,849.0,0.0,-37.9201147,145.0693806
Keilor Downs,VIC,70.6,0.4,-0.1470991320237551,2,10.0,965.0,112.0,-37.7205762,144.8047614
Northmead,NSW,68.7,1.8,0.631246712256707,18,25.0,1037.0,268.0,-33.7844423,150.9983289
Minto - St Andrews,NSW,67.5,0.9,0.1116005873715124,10,45.0,941.0,392.0,-34.0316667,150.8511111
Pakenham - South East,VIC,65.8,0.3,0.9446216294578138,22,137.0,948.0,36.0,-38.0806283,145.4863217
Sans Souci - Ramsgate,NSW,63.4,1.2,0.1545864045864045,16,58.0,1030.0,676.0,-33.9842629,151.1373381
Atherton,QLD,62.4,1.6,0.3957932828225715,22,53.0,961.0,312.0,-17.2667108,145.4768923
Phillip,ACT,61.6,12.21800000000003,2.78446261682243,21,0.0,1067.0,3739.0800000000017,-35.3470436,149.091009
Mount Eliza,VIC,61.4,0.7,0.1144984463856481,19,48.0,1104.0,144.0,-38.1837857,145.0892865
Denham Court - Bardia,NSW,59.2,7.9,10.317233809001095,16,41.0,1056.0,308.0,-33.9813889,150.8294444
Karrinyup - Gwelup - Carine,WA,58.4,1.0,0.3871279804245149,21,96.0,1103.0,240.0,-31.8705761,115.7787989
Brunswick Heads - Ocean Shores,NSW,57.4,1.8,0.3200825309491059,22,24.0,1004.0,236.0,-28.5433279,153.5402432
Woonona - Bulli - Russell Vale,NSW,56.1,0.6,0.2084711343196983,19,38.0,1038.0,296.0,-34.3455556,150.9041667
Engadine,NSW,55.4,1.2,0.0377723120168657,17,23.0,1081.0,412.0,-34.0650134,151.0138225
Chelsea - Bonbeach,VIC,54.7,1.8,0.3693421846710923,21,12.0,1043.0,404.0,-38.0623061,145.1268484
Como,WA,54.5,2.4,0.2670481640438722,19,136.0,1062.0,260.0,-34.0032179,151.0631257
Hamilton Hill,WA,53.0,3.5,0.237435346930809,16,49.0,963.0,384.0,-32.0845215,115.7794833
Mulgrave,VIC,52.8,1.4,0.2377300613496932,20,49.0,1038.0,1720.0,-37.9261741,145.1723107
Mudgeeraba - Bonogin,QLD,51.2,1.8,0.4107804142092991,22,18.0,1048.0,336.0,-28.1423755,153.3203015
Ballina,NSW,50.3,0.3,0.1255983724269985,20,18.0,975.0,296.0,-28.8526847,153.4906247
Northcote - East,VIC,49.7,2.3,0.2394706111327364,20,27.0,1064.0,684.0,-34.8984122,138.6093546
Sydney (South) - Haymarket,NSW,49.4,4.8,1.552869116698904,21,0.0,937.0,1344.0,-33.879335,151.2052514
North Lakes,QLD,47.8,0.7,20.0,21,2.0,1044.0,624.0,-27.2381221,153.017699
Darling Heights,QLD,47.5,3.0,0.5389026954693176,21,118.0,952.0,300.0,-27.5959638,151.9319469
Highett (West) - Cheltenham,VIC,46.9,2.6,0.3562849451232139,21,15.0,1071.0,2380.0,-37.9484438,145.04188
Ormond - Glen Huntly,VIC,46.1,4.9,0.3500366434591425,20,24.0,1066.0,368.0,-37.8978381,145.0445142
Shellharbour - Flinders,NSW,45.1,1.8,1.5147347740667976,22,60.0,1045.0,1644.0,-34.5896051,150.8512467
Melbourne CBD - West,VIC,44.4,7.2,9.813159216474132,21,0.0,994.0,0.0,-37.8363839,144.9766624
Echuca,VIC,44.1,-0.2,0.2396970904742925,20,79.0,971.0,196.0,-36.1281405,144.7516955
Laverton,VIC,43.6,2.7,1.6846979583245631,17,44.0,993.0,316.0,-27.9396502,125.4448928
Mandurah,WA,43.4,3.6,0.4123205301263958,19,58.0,859.0,616.0,-32.5302495,115.7208782
Coorparoo,QLD,43.3,2.1,0.3987784237250718,21,23.0,1078.0,316.0,-27.4962028,153.0595973
Quakers Hill,NSW,42.0,1.4,0.3356492203180485,22,31.0,1054.0,164.0,-33.7344444,150.8788889
Trinity Beach - Smithfield,QLD,41.7,3.8,1.5576771135106664,22,19.0,1033.0,584.0,-16.789067,145.700349
Mitcham (SA),SA,41.5,1.1,0.0830039525691699,16,28.0,1087.0,300.0,-35.0200132,138.6159122
McLaren Vale,SA,41.5,4.5,0.7395425509993818,22,55.0,1047.0,244.0,-35.2172617,138.5416998
Paradise Point - Hollywell,QLD,41.4,2.2,0.5222047693845495,22,48.0,1049.0,208.0,-27.8903073,153.3892371
Matraville - Chifley,NSW,41.0,1.6,0.123381323896083,17,33.0,1019.0,628.0,-33.9653292,151.2443668
Pendle Hill - Girraween,NSW,40.7,1.5,0.4726618705035971,20,32.0,996.0,728.0,-33.8079624,150.9434561
Rooty Hill - Minchinbury,NSW,40.3,0.4,0.3205368822157766,20,37.0,972.0,156.0,-33.788834,150.8543367
Karratha,WA,39.2,2.2,0.8041666666666667,19,73.0,1068.0,128.0,-20.7370067,116.8478592
Balgowlah - Clontarf - Seaforth,NSW,38.9,0.2,0.1322237883551989,16,36.0,1114.0,296.0,-33.7943622,151.2644605
Petersham - Stanmore,NSW,38.9,1.4,0.1378768163088267,17,9.0,1069.0,164.0,-33.8962721,151.1592421
St Georges Basin - Erowal Bay,NSW,38.0,0.8,0.3605598866052445,21,55.0,951.0,428.0,-35.118678,150.6052521
Hawthorn East,VIC,37.1,2.5,0.3412065360489429,20,54.0,1091.0,160.0,-37.8313785,145.0499797
Northcote - West,VIC,36.9,2.0,0.3186469242807271,20,5.0,1080.0,80.0,-34.90124,138.60911
Taylor,ACT,36.4,12.21800000000003,20.0,6,103.0,1051.0,832.0,-35.1468038,149.1071989
Morningside - Seven Hills,QLD,36.0,3.1,0.6965509854327335,22,43.0,1070.0,252.0,-27.4615955,153.0754455
Berwick - North,VIC,34.9,1.0,0.2462948415815658,18,55.0,1057.0,212.0,-33.8846288,151.2794788
Phillip Island,VIC,34.4,1.9,0.9755501222493888,22,38.0,1005.0,2452.0,-38.5071781,145.1888103
Carseldine,QLD,34.2,1.3,0.6383992377322535,21,229.0,1066.0,640.0,-27.3481021,153.0226204
Everton Park,QLD,34.1,2.9,0.3982964658021866,20,68.0,1062.0,652.0,-27.4064443,152.9869559
Rokeby,TAS,33.6,2.7,0.8082329317269076,22,68.0,882.0,610.0,-42.8958386,147.4336189
Corinda,QLD,33.6,2.2,0.3102078953515533,20,31.0,1068.0,444.0,-27.5430769,152.9813705
Batemans Bay - South,NSW,33.5,0.4,0.2439994513784117,17,27.0,989.0,328.0,-35.7068297,150.1781933
Pymble,NSW,33.1,1.6,0.1512626586335085,17,39.0,1116.0,196.0,-33.7450185,151.1424708
Noble Park - West,VIC,33.0,0.6,0.216041629284048,16,24.0,853.0,330.0,-37.7962836,144.7932796
Marcoola - Mudjimba,QLD,32.6,1.5,0.8327007299270073,22,9.0,1023.0,620.0,-26.604241,153.0970215
Mooloolaba - Alexandra Headland,QLD,32.3,1.1,0.2422572677180315,22,23.0,1028.0,120.0,-26.674879,153.0972335
Wallsend - Elermore Vale,NSW,31.9,1.4,0.1493059234926353,20,48.0,976.0,772.0,-32.9193517,151.6493564
Tamworth - North,NSW,31.9,0.8,0.2544519782430519,20,69.0,986.0,396.0,-31.0780137,150.9258909
Riverton - Shelley - Rossmoyne,WA,31.2,2.4,0.3024640317512816,19,61.0,1071.0,356.0,-32.0320357,115.8779168
Shortland - Jesmond,NSW,31.1,3.2,0.4771380186282811,21,57.0,930.0,640.0,-32.8816613,151.6871202
Wynnum,QLD,30.8,2.0,0.3833121942380866,22,13.0,1029.0,288.0,-27.4377187,153.1659743
Lambton - New Lambton,NSW,30.7,0.9,0.0979832454235184,18,46.0,1034.0,272.0,-32.9344353,151.7076323
Kingaroy,QLD,30.5,1.0,0.3326071169208424,19,37.0,929.0,116.0,-26.5412563,151.8394231
Highbury - Dernancourt,SA,30.2,1.1,0.0899822280422785,14,61.0,1068.0,228.0,-33.0561723,117.2396552
Essendon (West) - Aberfeldie,VIC,30.1,3.2,0.2560029282576866,20,30.0,1073.0,304.0,-37.7498293,144.9109062
Flagstone (East) - Riverbend,QLD,29.9,1.6,1.9995794785534065,22,160.0,1013.0,32.0,-27.8160216,152.9652865
Redlynch,QLD,29.7,1.3,1.1664953751284686,22,65.0,1057.0,420.0,-16.920676,145.698255
Currumbin - Tugun,QLD,29.7,2.4,0.4142948855125187,20,41.0,1033.0,468.0,-28.1421345,153.4922221
Peakhurst - Lugarno,NSW,29.1,0.7,0.1982416824685399,22,120.0,1043.0,348.0,-33.9616444,151.0590667
Surfers Paradise - South,QLD,28.6,5.0,0.8536746127650225,22,175.0,983.0,536.0,-27.9989899,153.42398
Guildford - South Granville,NSW,28.3,2.6,0.4529684827754703,19,79.0,801.0,344.0,-33.8573915,151.007066
Currans Hill,NSW,28.3,5.8,0.5817049602748551,19,21.0,1021.0,352.0,-34.0463519,150.7712456
Alderley,QLD,28.3,2.0,0.469067969067969,22,19.0,1089.0,76.0,-27.4258161,153.002316
Shepparton Surrounds - West,VIC,28.1,0.1,0.0444555945810336,17,87.0,975.0,252.0,,
Taree,NSW,27.8,0.4,0.050473340854466,17,58.0,879.0,148.0,-31.912864,152.4608481
Craigmore - Blakeview,SA,27.8,0.8,0.6752434486580635,22,48.0,953.0,88.0,-34.6892151,138.7186505
Wentworth Point - Sydney Olympic Park,NSW,27.7,3.1,20.0,22,488.0,1051.0,3739.0800000000017,-33.8268958,151.0774351
Ascot Vale,VIC,27.6,2.7,0.29064472317648,20,16.0,1015.0,164.0,-37.7753252,144.921825
Adamstown - Kotara,NSW,27.4,1.4,0.2053565217391304,21,188.0,1061.0,492.0,-32.9337786,151.7200237
Largs Bay - Semaphore,SA,27.4,1.6,0.1185227598053249,15,123.0,1009.0,752.0,-34.8243551,138.4839532
Bracken Ridge,QLD,26.7,1.9,0.2957217391304347,19,26.0,1024.0,360.0,-27.317662,153.0339358
South Yarra - North,VIC,26.6,5.2,1.7588021044111697,19,134.0,1090.0,156.0,-37.7890566,144.9786383
Willetton,WA,26.4,2.2,0.1305044035228182,15,39.0,1058.0,296.0,-32.0524594,115.8878267
Alphington - Fairfield,VIC,25.8,2.0,0.2286330205427339,20,17.0,1070.0,244.0,-37.7770644,145.0175517
Melbourne CBD - North,VIC,25.6,9.0,13.22195416164053,21,0.0,961.0,0.0,-37.804272,144.958148
Redcliffe,QLD,25.5,2.7,0.3431931143168868,21,318.0,933.0,936.0,-27.2268785,153.1129973
Wickham - Carrington - Tighes Hill,NSW,25.5,3.1,0.6051556114429425,21,7.0,1033.0,256.0,-32.9233333,151.7594444
Point Vernon,QLD,25.2,0.4,0.3873788702434412,15,17.0,922.0,272.0,-25.2566045,152.8128281
Charlestown - Dudley,NSW,25.1,0.7,0.1013243908650989,21,49.0,1025.0,476.0,-26.3683625,151.9188662
Coffs Harbour - North,NSW,25.1,1.0,0.2590019373371635,21,41.0,940.0,156.0,-30.3178121,153.0858034
Schofields (West) - Colebee,NSW,24.8,9.7,10.896757679180888,18,61.0,1098.0,426.0,-33.6971603,150.8711915
Williamstown,VIC,24.7,2.0,0.2037419079462189,18,13.0,1067.0,232.0,-37.8611788,144.8898569
Bribie Island,QLD,24.6,1.7,0.5152635181382614,22,27.0,954.0,160.0,-26.9644799,153.120238
Buderim - South,QLD,24.6,0.7,0.646794353025807,21,19.0,1056.0,1132.0,-26.6890011,153.086912
Malvern East,VIC,24.5,2.4,0.2211419753086419,20,36.0,1088.0,588.0,-37.876835,145.0658739
Bowral,NSW,24.2,-0.4,0.2250546249089584,20,37.0,1071.0,372.0,-34.4816626,150.4177868
Falcon - Wannanup,WA,24.1,3.5,1.3655634869132598,22,52.0,987.0,384.0,-32.5928744,115.6427914
St Lucia,QLD,24.1,5.7,0.4987995198079231,20,1.0,1042.0,108.0,-27.4989435,153.0064984
Mount Gambier - West,SA,23.8,0.5,0.1629368485591661,18,72.0,931.0,264.0,-37.8279928,140.7801404
Loganholme - Tanah Merah,QLD,23.8,2.3,0.3028387898881061,21,55.0,1003.0,120.0,-27.683054,153.1894379
South Perth - Kensington,WA,23.7,2.2,0.247279402124033,18,28.0,1079.0,1012.0,-31.9835362,115.8756212
Toowong,QLD,23.6,1.6,0.5550751024123806,20,20.0,1078.0,224.0,-27.478974,152.9853241
Chatswood (West) - Lane Cove North,NSW,23.6,2.8,0.3295897318358927,18,30.0,1082.0,104.0,-33.8055115,151.1634856
West Footscray - Tottenham,VIC,23.4,2.9,0.3207585644371941,19,14.0,1016.0,612.0,-37.8017381,144.8840566
Moe - Newborough,VIC,23.2,0.9,0.0264330090259055,12,57.0,877.0,552.0,-38.171286,146.2884537
Currumbin Valley - Tallebudgera,QLD,23.2,1.1,0.3709952283571915,22,22.0,1061.0,196.0,-28.2393442,153.343978
Mitchelton,QLD,23.2,1.9,0.571945403716494,21,17.0,1060.0,652.0,-27.4103837,152.9733826
Carina,QLD,23.1,2.1,0.5129212814100274,21,49.0,1058.0,344.0,-27.4872985,153.1000363
Wynnum West - Hemmant,QLD,22.8,2.0,0.3134445227468483,19,38.0,1000.0,128.0,-27.4539766,153.1562022
Aveley,WA,22.6,4.9,20.0,22,3.0,1035.0,108.0,-31.787069,115.9862261
Blacktown - West,NSW,22.5,1.4,0.2780771718042681,20,71.0,962.0,252.0,-33.7706391,150.8930545
Reynella,SA,22.3,1.8,0.0592877577192463,18,48.0,990.0,328.0,-35.0965682,138.5216167
Mount Martha,VIC,22.2,0.4,0.6141347846966544,20,22.0,1079.0,532.0,-38.2754676,145.0307737
Kogarah Bay - Carlton - Allawah,NSW,22.2,2.4,0.2119641356122163,18,42.0,1009.0,320.0,-33.9816792,151.1239702
Carlingford - West,NSW,22.0,2.4,0.3996331770939474,19,326.0,1043.0,560.0,-33.7819312,151.0370219
Kensington (Vic.),VIC,21.6,2.5,0.5220502146481072,19,446.0,1044.0,2912.0,-37.7944926,144.9295903
Ballarat East - Warrenheip,VIC,21.1,0.9,0.211871804464397,17,103.0,959.0,304.0,-37.564603,143.8970466
Chittaway Bay - Tumbi Umbi,NSW,21.0,0.8,0.0799656629688325,15,31.0,1018.0,372.0,-33.326936,151.4367385
Newstead - Bowen Hills,QLD,20.9,3.3,4.5991436981536,22,224.0,1099.0,3739.0800000000017,-27.4483345,153.0461534
Wheelers Hill,VIC,20.7,1.5,-0.0114707658013281,11,39.0,1066.0,544.0,-37.9103266,145.1895175
Seaford Rise - Moana,SA,20.6,1.9,0.5424579489962018,22,29.0,1002.0,262.0,-35.2009601,138.4866672
Tenambit - East Maitland,NSW,20.5,0.7,0.3346080305927342,21,15.0,976.0,340.0,-32.7434353,151.6032018
Wembley Downs - Churchlands - Woodlands,WA,20.3,2.1,0.3546210188461855,21,22.0,1090.0,312.0,-31.9192137,115.7798863
Valley View - Gilles Plains,SA,20.3,0.9,0.1616215638036153,19,52.0,978.0,394.0,-34.8443635,138.6674038
Torquay,VIC,20.3,1.5,1.584294934480735,22,79.0,1097.0,336.0,-38.3266551,144.3134076
Cottesloe,WA,20.2,2.9,0.206972883231876,17,9.0,1115.0,296.0,-31.9955715,115.7558367
Wollongong - West,NSW,20.2,1.9,0.1702859455084974,17,9.0,991.0,352.0,-34.4242537,150.8673533
Salisbury East,SA,20.0,1.0,0.0762506344819807,17,75.0,940.0,120.0,-34.7764785,138.6721978
Zetland,NSW,19.9,2.4,20.0,22,282.0,1071.0,1080.0,-33.9076623,151.2082183
Helensvale,QLD,19.9,2.2,0.5292389068468998,22,143.0,1036.0,232.0,-27.9053051,153.3324585
Montmorency - Briar Hill,VIC,19.6,0.6,0.0782730336364214,16,22.0,1080.0,260.0,-37.7099863,145.1229613
Caloundra Hinterland,QLD,19.5,0.0,0.2668481960517359,22,34.0,1012.0,232.0,,
Arncliffe - Bardwell Valley,NSW,19.5,2.5,0.5426771381720894,21,127.0,984.0,2838.0,-33.9358416,151.1476683
Kiama,NSW,19.4,1.3,0.3455223880597015,19,29.0,1056.0,172.0,-34.6958202,150.7959123
Booragoon,WA,19.4,2.9,0.2726333653065741,18,30.0,1077.0,704.0,-32.0395384,115.8336757
Wantirna South,VIC,19.3,1.2,0.0207604773799611,12,51.0,1046.0,492.0,-37.8737902,145.2217475
East Perth,WA,19.2,4.7,2.5641925777332,22,0.0,1043.0,2704.0,-31.9439495,115.8770742
Tamworth - East,NSW,19.1,0.8,0.2019143844722148,22,29.0,950.0,284.0,-31.0894444,150.9436111
Coombs,ACT,19.1,7.0,20.0,11,93.0,1086.0,412.0,-35.3167344,149.0425254
Clinton - New Auckland,QLD,19.0,1.2,0.8948682731926583,21,29.0,962.0,92.0,-34.221686,138.0231826
Templestowe Lower,VIC,19.0,1.1,0.0717271727172717,17,32.0,1055.0,740.0,-37.7638749,145.1122762
Clayton South,VIC,19.0,2.7,0.3408024089983172,18,15.0,954.0,176.0,-37.9320359,145.1245064
Mansfield (Vic.),VIC,18.6,2.2,0.6136363636363636,22,50.0,1028.0,364.0,-37.0519596,146.0890787
Brunswick West,VIC,18.6,2.9,0.2600676546391752,21,16.0,1047.0,304.0,-37.7633334,144.9425563
Mount Druitt - Whalan,NSW,18.5,2.1,0.3570065124635077,19,51.0,859.0,216.0,-33.7705556,150.8205556
Freshwater - Brookvale,NSW,18.5,2.5,0.2867813865987937,18,69.0,1097.0,308.0,-33.7680245,151.279795
Rosebery - Beaconsfield,NSW,18.4,2.0,1.653523326176069,22,11.0,1082.0,52.0,-33.9103632,151.2025107
Armadale,VIC,18.3,2.3,0.1581142129039731,19,3.0,1089.0,556.0,-32.1791895,116.1066784
Bassendean - Eden Hill - Ashfield,WA,18.0,1.3,0.2198349459305634,16,50.0,1015.0,136.0,-31.9059155,115.9442686
Carrum Downs,VIC,17.9,2.0,0.5138132295719844,21,26.0,986.0,48.0,-38.1003312,145.1788657
Strathfield - East,NSW,17.9,3.9,0.4769465159169272,19,13.0,979.0,152.0,-38.1292475,145.2954609
Golden Plains - South,VIC,17.9,3.5,0.7140062597809077,22,44.0,1043.0,368.0,-29.3837369,147.5710838
Hamilton - Broadmeadow,NSW,17.8,1.4,0.1691091571187494,19,6.0,999.0,3739.0800000000017,-32.9249315,151.7463643
Highton,VIC,17.8,1.9,0.6555914673561732,22,42.0,1077.0,292.0,-38.1709191,144.3190212
North Melbourne,VIC,17.7,6.5,1.0832339872114447,21,3.0,981.0,344.0,-37.8076092,144.9423514
Loganlea,QLD,17.7,1.2,0.8173950056753689,22,52.0,866.0,328.0,-27.6731622,153.137161
Oak Park,VIC,17.5,2.4,0.377190136275146,18,50.0,1064.0,328.0,-37.7180181,144.9215041
Auburn - Central,NSW,17.4,2.6,0.6859949302915083,21,15.0,804.0,160.0,-33.849979,151.0317195
Mentone,VIC,17.2,1.9,0.2098252897422591,19,22.0,1061.0,368.0,-37.9835633,145.0663498
Colonel Light Gardens,SA,17.1,0.7,0.0748099746632884,19,19.0,1064.0,216.0,-34.9835849,138.5946908
Nundah,QLD,17.1,2.7,0.771921301918873,21,10.0,1038.0,120.0,-27.4012298,153.0603789
Carnegie,VIC,17.0,4.0,0.3951812053660815,20,65.0,1062.0,996.0,-37.8862295,145.0585695
Greenacre - South,NSW,16.9,0.8,0.2269490761604326,19,32.0,889.0,392.0,-33.892985,151.061599
Woolloongabba,QLD,16.9,4.0,1.6560274333948826,21,255.0,1041.0,16.0,-27.4853896,153.0364488
Swan View - Greenmount - Midvale,WA,16.8,2.4,0.1444231076972315,13,137.0,972.0,380.0,-31.8800199,116.0471182
Croydon Park - Enfield,NSW,16.7,1.7,0.1021809124597533,17,39.0,1018.0,268.0,-34.8815367,138.5763373
Dee Why - North,NSW,16.5,2.4,0.6136923468954387,21,7.0,1025.0,216.0,-33.7656245,151.302272
Dural - Kenthurst - Wisemans Ferry,NSW,16.4,0.7,0.147444233269981,20,59.0,1087.0,308.0,-33.6876398,151.0267199
Harrisdale,WA,16.3,4.0,20.0,18,72.0,1074.0,142.0,-32.1186965,115.9314593
Castle Cove - Northbridge,NSW,16.1,0.3,0.0751426759670259,15,75.0,1118.0,208.0,-33.7865285,151.2143187
Lane Cove,NSW,16.1,1.6,0.3785933228398641,19,50.0,1098.0,784.0,-33.8232026,151.1697148
Springfield,QLD,16.0,3.6,1.4270020237062735,22,3.0,1014.0,72.0,-27.6540497,152.908847
Norwood (SA),SA,16.0,2.7,0.2874825099558712,20,8.0,1038.0,1116.0,-34.9212947,138.6362477
Oyster Bay - Como - Jannali,NSW,15.9,1.1,0.0715663671011151,17,26.0,1098.0,272.0,-34.0032775,151.0812354
Croydon - West,VIC,15.9,1.5,0.4178219715077923,20,28.0,1032.0,256.0,-33.8756016,151.1242908
Carlingford - East,NSW,15.9,1.6,0.290572535514421,19,18.0,1063.0,204.0,-34.7616588,138.6689965
Potts Point - Woolloomooloo,NSW,15.8,3.0,0.1876246298870022,17,40.0,1050.0,48.0,-33.867522,151.2243115
Dubbo - West,NSW,15.8,1.4,0.5251818690542809,21,62.0,976.0,244.0,-32.2483174,148.5844392
North Geelong - Bell Park,VIC,15.8,0.0,0.1573753590102364,16,14.0,971.0,552.0,-38.109646,144.3416502
Perth (North) - Highgate,WA,15.8,3.8,0.8582120582120583,20,71.0,1044.0,96.0,-31.9558967,115.8605784
Fortitude Valley,QLD,15.5,4.7,3.3194912083800974,22,20.0,1033.0,0.0,-27.4572735,153.0362663
Hadfield,VIC,15.3,2.0,0.1650910364145658,17,41.0,970.0,240.0,-37.7101582,144.9502764
Browns Plains,QLD,15.3,3.5,0.6555256064690027,20,8.0,907.0,660.0,-27.662885,153.0516055
North Narrabeen - Warriewood (South),NSW,15.2,-0.4,0.4370938393553418,15,7.0,1083.0,232.0,-33.6960676,151.2962535
Burnside - Wattle Park,SA,14.9,0.9,0.095769104624467,21,44.0,1082.0,224.0,-34.944479,138.6472958
Brunswick East,VIC,14.8,4.8,0.9877477973568282,21,18.0,1076.0,400.0,-37.7688802,144.9776825
Hastings - Somers,VIC,14.8,0.0,0.3437079407806191,19,40.0,1006.0,324.0,-38.3056058,145.1859934
Gordon - Killara,NSW,14.8,2.2,0.2923277548359052,14,32.0,1090.0,144.0,-33.7608128,151.1836757
Moonee Ponds,VIC,14.7,3.6,0.4135934649853279,21,17.0,1067.0,2804.0,-37.765935,144.9192614
Civic,ACT,14.6,1.8,9.799180327868852,21,0.0,1101.0,2656.0,-35.2812678,149.1291868
Varsity Lakes,QLD,14.5,2.2,1.5944045911047346,21,291.0,1013.0,8.0,-28.0971316,153.3992325
Marsden,QLD,14.4,2.2,1.0405278039585295,22,39.0,839.0,392.0,-27.6755473,153.103837
Essendon - East,VIC,14.3,2.2,0.2557710960232783,19,43.0,1071.0,628.0,-37.7415139,144.871904
Caloundra - Kings Beach,QLD,14.3,0.8,0.3533805784332503,19,41.0,954.0,672.0,-26.8016505,153.1374485
Bankstown - South,NSW,14.2,1.2,0.5178047426441431,22,21.0,843.0,1016.0,-33.919114,151.0351971
Gorokan - Kanwal - Charmhaven,NSW,14.2,0.5,0.1002467463350912,14,25.0,917.0,276.0,-33.2562494,151.5140288
Underwood,QLD,14.1,2.4,1.3052533416226295,21,18.0,1019.0,96.0,-27.6070295,153.1123282
Caringbah,NSW,14.1,2.5,0.421694214876033,22,340.0,1042.0,3200.0,-34.0354477,151.1248018
East Victoria Park - Carlisle,WA,14.1,3.3,0.4998083263052978,20,25.0,1033.0,208.0,-31.9842427,115.9028513
Colyton - Oxley Park,NSW,14.1,2.1,0.2595862068965517,18,41.0,919.0,260.0,-33.7822222,150.7958333
Lockridge - Kiara,WA,13.9,3.3,0.8150805639476334,20,29.0,992.0,188.0,-31.881459,115.9499826
Brisbane City,QLD,13.9,6.6,4.998223801065719,21,1.0,1020.0,3739.0800000000017,-27.470301,153.0258187
Mernda - North,VIC,13.9,2.3,16.524017467248907,21,9.0,1019.0,272.0,-37.5880064,145.0949611
Kingston - Huntingfield,TAS,13.9,1.5,0.7139604553624925,22,59.0,1004.0,112.0,-29.0563564,167.9595733
Norman Gardens,QLD,13.9,1.2,0.604381443298969,22,35.0,996.0,68.0,-23.3261245,150.5388877
Irymple,VIC,13.8,1.0,0.2702745849297573,22,36.0,1031.0,256.0,-34.235623,142.1704328
Springvale South,VIC,13.8,2.4,0.1319779462439696,18,53.0,831.0,288.0,-37.9708611,145.1478692
Stockton - Fullerton Cove,NSW,13.7,2.1,0.5527172144484217,21,13.0,1001.0,540.0,-32.8479228,151.8344202
Mascot,NSW,13.7,-0.1,1.8696682464454977,20,111.0,1033.0,108.0,-33.9289562,151.1951782
Edmonton,QLD,13.7,1.9,0.8822082115946486,22,28.0,967.0,264.0,-17.018813,145.7449116
Athelstone,SA,13.7,0.7,0.040012635569127,13,27.0,1064.0,354.0,-34.8714792,138.7054458
Manning - Waterford,WA,13.6,2.7,0.329751304881793,19,18.0,1050.0,364.0,-32.0123261,115.8848604
Mareeba,QLD,13.6,1.9,0.4159083249073138,22,45.0,922.0,324.0,-16.9932257,145.4224301
Upper Kedron - Ferny Grove,QLD,13.6,2.9,0.7849781166172526,22,42.0,1088.0,484.0,-27.4111205,152.9232658
Thirroul - Austinmer - Coalcliff,NSW,13.6,0.5,0.1405645237420938,18,25.0,1096.0,352.0,-34.3164691,150.918932
Clifton Springs,VIC,13.6,1.3,0.7376776090151886,22,23.0,1014.0,348.0,-38.15307,144.5726575
Rivervale,WA,13.5,3.9,0.8235208181154127,20,167.0,1003.0,352.0,-31.9628542,115.9147434
Forrestfield - Wattle Grove,WA,13.5,2.6,0.7455357142857143,22,23.0,1010.0,320.0,-31.954628,115.9921995
Preston - West,VIC,13.4,2.4,0.2087034544638851,18,24.0,1034.0,248.0,-37.7378429,144.9956343
Parrearra - Warana,QLD,13.4,1.5,0.9255153299844102,22,23.0,1030.0,1440.0,-26.7108685,153.1221273
Seven Hills - Prospect,NSW,13.3,-0.2,0.0966526590349224,14,34.0,1005.0,496.0,-33.7762649,150.9332791
California Gully - Eaglehawk,VIC,13.1,1.5,0.4283900994288132,21,61.0,912.0,104.0,-36.7314172,144.2572707
Blackwood,SA,13.1,1.4,0.3270964614638875,22,24.0,1094.0,236.0,-35.0223835,138.6128068
Tuart Hill - Joondanna,WA,13.0,3.2,0.4062131340935902,21,40.0,1024.0,188.0,-31.9041865,115.8383579
Melville,WA,13.0,2.6,0.3098999655053466,20,37.0,1086.0,340.0,-11.5521795,130.9727399
Dulwich Hill - Lewisham,NSW,12.9,1.1,0.1559212968691993,16,146.0,1051.0,68.0,-33.9045849,151.1386091
Port Macquarie - East,NSW,12.9,-0.5,0.118655303030303,17,9.0,1002.0,364.0,-31.4299499,152.9103525
Tarragindi,QLD,12.9,2.0,0.2547619047619047,19,28.0,1100.0,192.0,-27.52633,153.0441075
Spring Farm,NSW,12.9,6.0,20.0,18,12.0,1058.0,276.0,-34.0694444,150.7272284
Craigieburn - South,VIC,12.9,2.6,1.7830155979202773,22,10.0,946.0,404.0,-37.6144517,144.9394789
Dapto - Avondale,NSW,12.9,0.5,0.127315763120761,21,22.0,970.0,312.0,-34.493037,150.791789
Carina Heights,QLD,12.8,1.8,0.2911944202266783,21,6.0,1026.0,108.0,-27.5014508,153.0966984
Manly Vale - Allambie Heights,NSW,12.7,1.5,0.1748870112006288,16,18.0,1090.0,276.0,-33.7814257,151.2556766
Butler - Merriwa - Ridgewood,WA,12.7,1.4,3.8496311707962927,21,23.0,966.0,182.0,-31.6356944,115.7003262
Beaumaris,VIC,12.6,1.3,0.1299749294891883,16,21.0,1108.0,316.0,-37.9822122,145.0389098
Leumeah - Minto Heights,NSW,12.6,0.6,0.03355623832761,13,19.0,957.0,144.0,-34.0543113,150.8371354
The Hills District,QLD,12.5,2.0,0.1802026996318683,22,44.0,1082.0,236.0,-32.73342,134.49748
Cairns City,QLD,12.4,1.7,0.9608127721335268,21,41.0,951.0,8.0,-16.9233322,145.7733307
Mona Vale - Warriewood (North),NSW,12.3,0.9,0.2820622801750021,21,16.0,1085.0,52.0,-33.6769931,151.3029577
Lyneham,ACT,12.3,2.4,0.3934076357600189,20,51.0,1053.0,2824.0,-35.239801,149.1307354
Maffra,VIC,12.3,1.8,0.1881104360532184,21,59.0,980.0,312.0,-37.9652474,146.9764384
Woolooware - Burraneer,NSW,12.2,2.2,0.263046357615894,18,41.0,1108.0,288.0,-34.0530694,151.140779
Bangalow,NSW,12.2,1.8,0.438534969803234,21,14.0,1065.0,100.0,-28.6816667,153.5177778
Concord West - North Strathfield,NSW,12.2,1.4,0.2697745510126098,17,24.0,1061.0,476.0,-33.8563326,151.0919395
Southbank (West) - South Wharf,VIC,12.2,5.8,4.234198270126414,20,0.0,1055.0,0.0,-37.8275306,144.9538221
Collingwood,VIC,12.0,6.2,1.1344312523937188,21,2.0,962.0,4.0,-37.802104,144.9881387
Condell Park,NSW,12.0,1.5,0.3915349417637271,21,33.0,908.0,192.0,-33.9227893,151.0113353
Drayton - Harristown,QLD,12.0,0.7,0.2086071655713377,20,8.0,907.0,544.0,-27.5876212,151.9299413
Doreen - South,VIC,11.7,2.8,20.0,22,12.0,1045.0,148.0,-33.8054611,150.5501117
Eight Mile Plains,QLD,11.7,2.2,0.4924215084806929,18,18.0,1028.0,64.0,-27.5804725,153.0884044
Wembley - West Leederville - Glendalough,WA,11.7,3.2,0.4228522108617713,22,37.0,1060.0,96.0,-31.9336484,115.8148091
Howrah - Tranmere,TAS,11.6,-0.1,0.4078655619092076,21,12.0,1059.0,80.0,-42.8787603,147.4062497
Belmore - Belfield,NSW,11.6,0.4,0.1176031559867789,18,61.0,933.0,156.0,-33.9171961,151.0887104
Smithfield - Elizabeth North,SA,11.5,0.8,0.0614432989690721,13,92.0,732.0,410.0,-33.8478215,150.9408736
Figtree - Keiraville,NSW,11.5,0.7,0.1855540465771339,21,37.0,1038.0,204.0,-34.4307377,150.8487279
Newnham - Mayfield,TAS,11.5,-0.5,0.2487214668828739,21,7.0,821.0,302.0,-41.3889704,147.124029
Peregian Beach - Marcus Beach,QLD,11.5,1.4,0.2755490483162518,17,17.0,1075.0,92.0,-26.4596723,153.0973585
Mermaid Waters,QLD,11.4,2.4,0.2042938611204293,21,503.130000000001,1039.0,108.0,-28.052458,153.4218922
Lynbrook - Lyndhurst,VIC,11.4,2.1,11.888594164456231,22,10.0,1021.0,140.0,-38.0571593,145.2493085
Ashgrove,QLD,11.3,1.7,0.2560717610222561,20,15.0,1103.0,88.0,-27.44306,152.9827649
Toowoomba - Central,QLD,11.3,0.4,0.005668696199874,12,89.0,951.0,300.0,-27.5579762,151.9578129
Kilcoy,QLD,11.2,1.5,0.5156327543424317,22,63.0,954.0,192.0,-26.9417175,152.561157
Merimbula - Tura Beach,NSW,11.1,0.2,0.3343671031472547,22,17.0,1012.0,604.0,-36.8756666,149.9288124
Stafford,QLD,11.1,2.2,0.3283528352835284,22,76.0,1013.0,56.0,-27.4108007,153.0103865
Eimeo - Rural View,QLD,11.1,1.9,1.7280604719764012,22,49.0,1036.0,204.0,-21.0634654,149.1585156
Five Dock - Abbotsford,NSW,11.0,1.0,0.2248754509534444,17,503.130000000001,1062.0,656.0,-33.8690024,151.1290231
Bellbird Park,QLD,11.0,3.4,1.58187134502924,22,25.0,973.0,480.0,-27.6367635,152.8886859
Tully,QLD,11.0,2.2,0.0573644809236042,17,56.0,943.0,302.0,-17.9429225,145.9285816
Burnside,VIC,11.0,3.6,1.8975741239892183,22,26.0,982.0,236.0,-34.944479,138.6472958
Greenacre - North,NSW,10.9,1.4,0.2490358578813489,21,23.0,895.0,328.0,-33.9022902,151.058546
New Farm,QLD,10.9,3.3,0.3231361231361231,18,7.0,1068.0,128.0,-27.466589,153.0469363
Salisbury North,SA,10.9,0.4,0.4523354483602171,21,21.0,829.0,104.0,-34.745959,138.6276437
Point Cook - East,VIC,10.8,3.3,20.0,22,21.0,1051.0,184.0,-37.9064862,144.7533059
Hobart,TAS,10.7,-0.5,0.3795404002965159,19,12.0,1021.0,240.0,-42.8825088,147.3281233
Bondi Junction - Waverly,NSW,10.7,2.8,0.239763779527559,19,4.0,1081.0,2648.0,-33.8930034,151.2501228
Fawkner,VIC,10.7,1.7,0.2165392746788095,18,46.0,936.0,256.0,-37.7146535,144.9605402
Murrumbeena,VIC,10.7,2.7,0.2549656464709556,18,16.0,1077.0,796.0,-37.890315,145.0675972
Aspley,QLD,10.6,1.9,0.1478831748169346,17,4.0,1058.0,252.0,-27.3656925,153.0169605
West Beach,SA,10.5,1.5,0.2590277777777778,19,16.0,1059.0,168.0,-34.9451586,138.5091364
Castlemaine,VIC,10.5,0.4,0.2329308686825515,22,31.0,998.0,248.0,-37.0664778,144.2200032
Greenway,ACT,10.5,9.4,4.480040941658137,21,0.0,1049.0,0.0,-35.4158082,149.0648149
Goulburn Surrounds,NSW,10.4,1.0,0.3154059040590405,22,54.0,1017.0,328.0,,
Dianella - South,WA,10.3,3.3,0.317799294181522,21,37.0,1015.0,188.0,-36.4010328,148.4094897
Algester,QLD,10.3,3.3,0.4237191380048523,22,13.0,998.0,112.0,-27.6109526,153.0315999
Werribee - East,VIC,10.3,0.8,0.1897356143079315,17,27.0,895.0,264.0,-37.8995007,144.6609036
Madeley - Darch,WA,10.2,1.3,14.709577754891864,22,29.0,1052.0,312.0,-31.8120053,115.8252784
Wattle Glen - Diamond Creek,VIC,10.2,1.8,0.1747341691794953,18,17.0,1084.0,284.0,-37.6659556,145.1813531
Willagee,WA,10.2,2.3,0.385948905109489,19,29.0,971.0,116.0,-32.0520262,115.8052683
Jindabyne - Berridale,NSW,10.2,2.1,0.3494165878271839,21,19.0,1054.0,416.0,-36.3656611,148.8279507
Horsham,VIC,10.2,0.5,0.1482258938244853,19,38.0,978.0,172.0,-36.7148099,142.2018105
St Leonards - Naremburn,NSW,10.1,4.4,0.9257355041416738,21,10.0,1090.0,476.0,-33.8177927,151.1938
Canning Vale - East,WA,10.1,2.3,3.5195089135553315,21,18.0,1053.0,192.0,-32.0813818,115.916882
Kedron - Gordon Park,QLD,10.1,2.5,0.376310645103963,22,31.0,1070.0,120.0,-27.4170877,153.0325162
Woolgoolga - Arrawarra,NSW,10.0,1.0,0.4683383744755586,21,37.0,972.0,192.0,-30.1108288,153.2000074
Wilsonton,QLD,10.0,0.3,0.1534825086668767,22,24.0,888.0,196.0,-27.5417175,151.9177494
South Hedland,WA,9.8,1.8,0.6192425793244627,19,16.0,989.0,86.0,-20.4087731,118.5986644
Taree Surrounds,NSW,9.8,1.0,0.2359261640187345,22,16.0,959.0,428.0,,
South Lake - Cockburn Central,WA,9.7,2.7,0.1979350758069016,18,309.0,1001.0,964.0,-32.1100323,115.8455255
Avalon - Palm Beach,NSW,9.7,0.7,0.0108062538320049,13,29.0,1102.0,268.0,-33.6365039,151.3290299
Swanbourne - Mount Claremont,WA,9.6,3.2,0.3164096778237432,22,6.0,1106.0,108.0,-31.9658855,115.7751096
Goodna,QLD,9.6,1.2,0.7011064593301436,18,9.0,847.0,292.0,-27.608852,152.8927727
Randwick - South,NSW,9.6,1.7,0.1813028691026423,14,155.0,1087.0,184.0,-33.9620684,151.2279311
Trigg - North Beach - Watermans Bay,WA,9.5,2.4,0.2483921680720308,22,15.0,1092.0,176.0,-31.875679,115.755874
Middle Swan - Herne Hill,WA,9.4,3.5,0.2302656911821332,18,50.0,977.0,180.0,-31.8599389,116.0180672
Truganina - South West,VIC,9.4,2.1,20.0,21,4.0,992.0,268.0,-37.8089015,144.721139
Sunnybank,QLD,9.3,4.5,0.3035714285714285,19,22.0,948.0,108.0,-27.5752834,153.0557235
Samford Valley,QLD,9.3,1.7,0.5301331464611072,22,31.0,1102.0,192.0,-27.3708125,152.8558073
Parkwood - Ferndale - Lynwood,WA,9.3,2.2,-0.0023765513599155,13,33.0,1004.0,260.0,-32.0327324,115.9285949
Runcorn,QLD,9.2,3.2,0.2441925890201752,17,36.0,995.0,160.0,-27.5981125,153.0794092
Kenmore,QLD,9.2,2.2,0.2294541458053486,21,22.0,1095.0,184.0,-27.515645,152.937661
Auburn - South,NSW,9.1,1.7,0.4125037844383893,19,27.0,853.0,208.0,-33.8568221,151.0312131
Leichhardt - One Mile,QLD,9.1,1.9,0.5868231046931408,22,3.0,829.0,60.0,-27.6269868,152.7457468
Manly - Lota,QLD,9.1,2.1,0.2729375481881264,20,220.0,1051.0,96.0,-27.4624342,153.1875468
Point Cook - North West,VIC,9.0,1.7,20.0,21,3.0,1054.0,4.0,-37.9064862,144.7533059
Kew East,VIC,8.9,2.1,0.1087311968606932,17,12.0,1087.0,200.0,-37.7904215,145.0527906
Beaumont - Glen Osmond,SA,8.8,0.6,0.1744624251828862,21,21.0,1095.0,232.0,-34.9499756,138.6593163
Parmelia - Orelia,WA,8.8,1.7,0.1718422556677462,16,101.0,889.0,228.0,-32.2365084,115.8357982
Castle Hill - South,NSW,8.8,1.8,0.3348181143281366,19,10.0,1082.0,36.0,-33.7252055,150.9780442
Hillcrest,QLD,8.8,3.6,0.37949866965411,20,21.0,992.0,160.0,-34.8625153,138.643046
Bicton - Palmyra,WA,8.7,2.5,0.2570515817360137,18,13.0,1056.0,84.0,-32.0382088,115.777386
Scrivener,ACT,8.7,0.0,-0.2506365360394543,3,194.0,0.0,1272.0,-35.2996744,149.0722735
Wagga Wagga - East,NSW,8.7,0.1,0.1064497157420113,18,46.0,1009.0,224.0,-35.120802,147.3772724
Downer,ACT,8.7,1.6,0.3166180758017493,18,5.0,1053.0,832.0,-35.2438315,149.1435455
Mornington - West,VIC,8.7,0.6,0.3093455687032118,21,25.0,1043.0,332.0,-38.2235773,145.1716184
Noosa Heads,QLD,8.7,0.6,0.3977812995245642,20,4.0,1060.0,204.0,-26.40014,153.091049
Castle Hill - North,NSW,8.6,0.4,0.1284329563812601,18,381.0,1092.0,208.0,-19.2587634,146.8015729
Albury Surrounds,NSW,8.6,1.6,0.1835631251689645,19,53.0,1012.0,288.0,,
Hampton Park - East,VIC,8.6,1.9,0.3239687407260856,19,8.0,917.0,296.0,-38.0367368,145.2590312
Emu Plains - Leonay,NSW,8.6,0.0,-0.0441003663510057,9,157.0,1049.0,120.0,-33.7483333,150.6677778
Collaroy - Collaroy Plateau,NSW,8.6,1.1,0.1406929895245769,17,12.0,1091.0,380.0,-33.7275,151.286992
Pottsville,NSW,8.6,0.9,0.5834961997828447,22,14.0,1018.0,244.0,-28.3869444,153.5608333
Toorak,VIC,8.6,1.2,0.0139650123883174,15,74.0,1104.0,384.0,-37.850751,145.0136989
Ascot,QLD,8.5,2.8,0.3487726787620064,19,75.0,1078.0,28.0,-27.429703,153.0638907
Truganina - South East,VIC,8.5,2.4,20.0,22,4.0,1050.0,136.0,-37.8089015,144.721139
Bulleen,VIC,8.4,1.0,0.0637547476939772,16,26.0,1047.0,448.0,-37.7688992,145.0871992
Melbourne CBD - East,VIC,8.4,10.0,2.4262131065532766,20,0.0,995.0,0.0,-37.8132115,144.9700591
Enoggera,QLD,8.4,2.2,0.6420737786640079,20,45.0,1048.0,68.0,-27.4263185,152.9743221
Craigieburn - North West,VIC,8.3,4.0,20.0,18,2.0,965.0,68.0,-37.6022613,144.9430882
Panorama,SA,8.3,1.5,0.195848855774348,21,16.0,1033.0,192.0,-34.9998042,138.5972359
Northam,WA,8.3,1.8,0.2072921730675741,17,63.0,938.0,236.0,-31.6535192,116.6726927
Carramar,WA,8.2,3.5,4.504361210877373,22,49.0,1028.0,246.0,-31.7007986,115.7834881
Epping (Vic.) - West,VIC,8.2,1.6,18.67378048780488,17,1.0,991.0,272.0,-37.6523847,145.0315487
Noble Park - East,VIC,8.1,2.5,0.393976393976394,20,31.0,904.0,156.0,-37.9664597,145.1761147
Jamisontown - South Penrith,NSW,8.1,0.5,0.0037089871611982,12,29.0,998.0,234.0,-33.7679769,150.674815
Applecross - Ardross,WA,8.1,2.9,0.3049350121852153,20,34.0,1096.0,416.0,-32.0103523,115.8345592
Sherwood,QLD,8.1,2.2,0.5323535863127878,22,10.0,1074.0,216.0,-27.530861,152.9826097
Manly - Fairlight,NSW,8.0,2.7,0.2154723779023218,17,47.0,1105.0,608.0,-33.7954093,151.2816049
Oxley (Qld),QLD,8.0,2.5,0.5245209483598571,22,28.0,1059.0,92.0,-27.553433,152.9735986
Pemulwuy - Greystanes (North),NSW,7.9,0.5,1.130392912172573,18,31.0,1047.0,952.0,-33.8164641,150.9284441
Strathnairn,ACT,7.9,12.21800000000003,20.0,14,34.0,1117.0,320.0,-35.2323902,148.985554
Camp Hill,QLD,7.9,1.5,0.3587047939444912,22,28.0,1108.0,240.0,-27.4942385,153.0771926
Bathurst - West,NSW,7.8,1.0,0.2885217391304348,22,40.0,1011.0,92.0,-33.4066704,149.5622182
Mittagong,NSW,7.8,1.7,0.3872198965771977,20,32.0,1030.0,272.0,-34.4500664,150.4473469
Wauchope,NSW,7.8,1.2,0.5579081337498554,22,24.0,965.0,292.0,-31.4557879,152.734664
Rouse Hill - Beaumont Hills,NSW,7.7,2.5,2.0900332225913623,21,6.0,1101.0,0.0,-33.6865643,150.9315345
Arundel,QLD,7.7,1.9,0.5422434985120973,21,1.0,1009.0,8.0,-27.9360655,153.3653514
Coogee - Clovelly,NSW,7.7,1.3,0.0946894593001446,13,4.0,1114.0,184.0,-33.911446,151.254856
Canadian - Mount Clear,VIC,7.7,0.2,0.364512595837897,21,40.0,980.0,68.0,-37.5942397,143.8715272
Hocking - Pearsall,WA,7.7,2.4,2.330521996808753,22,25.0,1051.0,80.0,-31.7808346,115.817715
Bankstown - North,NSW,7.6,4.0,0.4798679336447093,20,4.0,854.0,84.0,-33.9061286,151.0383886
Vermont,VIC,7.5,1.8,0.1895233106338397,19,14.0,1063.0,96.0,-37.8379913,145.19836
Coopers Plains,QLD,7.5,3.0,0.4629024731684554,20,11.0,975.0,112.0,-27.566855,153.0367212
Carrara,QLD,7.5,2.2,0.4357048614635136,22,61.0,1021.0,40.0,-28.02077,153.3683962
Bentley Park,QLD,7.5,1.8,0.933389722985832,20,6.0,978.0,280.0,-17.0087133,145.7256869
Meadow Heights,VIC,7.5,0.6,-0.0608286252354048,12,18.0,800.0,132.0,-37.6511668,144.9185521
Forest Lake - Ellen Grove,QLD,7.4,1.7,0.7045841612262277,22,3.0,1007.0,28.0,-27.6019248,152.9493376
Fairfield - East,NSW,7.3,1.6,0.2374589600671909,17,156.0,785.0,164.0,-33.8747423,150.9721298
Cremorne - Cammeray,NSW,7.3,0.6,0.1469387755102041,17,251.0,1102.0,460.0,-33.8260081,151.2254326
Carindale,QLD,7.3,1.7,0.18726079825041,21,6.0,1086.0,44.0,-27.5032764,153.1040678
Orange - North,NSW,7.3,1.4,0.7467418362864255,22,42.0,1027.0,330.0,-33.2535491,149.1011116
St Kilda - West,VIC,7.3,3.6,0.4274286730068438,20,41.0,1052.0,4.0,-37.8579958,144.9712452
Mullumbimby,NSW,7.2,2.3,0.234916054564533,18,28.0,993.0,136.0,-28.5483333,153.5011111
South Brisbane,QLD,7.2,4.8,4.832822608103507,22,503.130000000001,1028.0,880.0,-27.479264,153.0200774
Port Adelaide,SA,7.2,3.1,0.178993805143608,12,60.0,917.0,650.0,-34.8342755,138.5123548
Point Lonsdale - Queenscliff,VIC,7.1,2.9,0.4281212121212121,17,32.0,1080.0,300.0,-38.2725073,144.6136725
Parkhurst - Kawana,QLD,7.1,2.1,0.3501518731015862,21,41.0,966.0,204.0,-23.303836,150.5018543
Elizabeth,SA,7.1,1.7,0.1635366967820525,18,32.0,646.0,120.0,-34.7202612,138.6693371
Malabar - La Perouse,NSW,7.1,1.1,0.3672344689378757,14,13.0,1041.0,812.0,-33.9629779,151.2480171
Elderslie - Narellan,NSW,7.1,0.9,1.205232295895354,22,37.0,1038.0,248.0,-34.0590289,150.715403
Erina - Green Point,NSW,7.1,0.0,0.1134622677284793,18,7.0,1033.0,388.0,-33.4352707,151.3827122
Earlwood,NSW,7.0,0.2,0.0182124789207419,13,21.0,1037.0,304.0,-33.9247222,151.1313889
Crestmead,QLD,7.0,1.3,0.4055001643475402,18,3.0,863.0,20.0,-27.689416,153.0914486
Donvale - Park Orchards,VIC,7.0,1.6,0.0584116570996025,15,9.0,1083.0,188.0,-37.7727895,145.1937127
Bundaberg North - Gooburrum,QLD,6.9,1.7,0.3205342237061769,17,2.0,894.0,96.0,-24.8294584,152.3077966
Ryde - South,NSW,6.9,2.7,2.460456475583864,22,12.0,1059.0,128.0,-33.7822552,151.1091798
Orange,NSW,6.9,0.0,-0.1175004615100609,5,29.0,956.0,180.0,-33.2820463,149.0971567
Baulkham Hills (West) - Bella Vista,NSW,6.9,1.2,0.3720211564747132,22,24.0,1103.0,240.0,-33.7611198,150.9914041
Taringa,QLD,6.8,2.8,0.4828711256117455,21,2.0,1069.0,180.0,-27.4952415,152.9854035
Auburn - North,NSW,6.8,5.4,0.4268582284492994,18,4.0,799.0,36.0,-33.841647,151.0385819
Maryland - Fletcher - Minmi,NSW,6.8,1.5,1.016931582584658,22,54.0,1032.0,148.0,-32.8788889,151.6636111
Eltham,VIC,6.7,0.2,-0.0298599670510708,10,29.0,1098.0,208.0,-37.7137359,145.147673
Annerley,QLD,6.7,1.9,0.4395299855891808,21,3.0,1036.0,28.0,-27.5126515,153.0325838
Bellevue Hill,NSW,6.7,1.1,0.0682545325275506,13,72.0,1117.0,420.0,-33.8797123,151.2561988
Lethbridge Park - Tregear,NSW,6.7,1.7,0.4419301376848547,16,31.0,838.0,180.0,-33.7386041,150.8014499
Oxenford - Maudsland,QLD,6.7,2.4,1.3369201339072214,22,39.0,1034.0,136.0,-27.9015337,153.2997577
Robina - West,QLD,6.6,2.3,1.5717350496111555,22,0.0,1026.0,1872.0,-32.0873972,116.0001057
Nudgee - Banyo,QLD,6.6,2.6,0.6428169014084507,22,21.0,1053.0,76.0,-27.3740642,153.0935561
Kew - South,VIC,6.6,1.9,0.0656487232574189,17,27.0,1100.0,260.0,-31.6336388,152.7241492
Chittering,WA,6.6,3.6,1.2902678874194642,22,72.0,1030.0,196.0,-31.360234,116.0673752
Bateau Bay - Killarney Vale,NSW,6.5,0.3,0.0723414179104477,17,20.0,991.0,160.0,-33.3772839,151.4649339
Keysborough - South,VIC,6.4,3.8,20.0,21,7.0,1039.0,44.0,-38.0118152,145.1606525
Scarborough,WA,6.4,4.0,0.55824073354573,22,136.0,1072.0,2172.0,-31.8959841,115.7592114
Marino - Seaview Downs,SA,6.4,1.3,0.1200266725939097,17,47.0,1060.0,172.0,-35.0499168,138.5153326
Templestowe,VIC,6.4,0.0,0.0165861607402665,14,22.0,1074.0,288.0,-37.7540588,145.1486152
Canterbury (North) - Ashbury,NSW,6.4,1.4,0.2598790322580645,18,4.0,1034.0,12.0,-37.8247469,145.0807636
Neutral Bay - Kirribilli,NSW,6.3,1.0,0.0869096785778416,15,29.0,1083.0,404.0,-33.8342887,151.2182049
Paddington - Milton,QLD,6.3,1.6,0.5030007926622126,21,3.0,1099.0,52.0,-27.4648896,153.0078872
Traralgon - West,VIC,6.2,0.8,0.3975659229208925,22,17.0,1011.0,202.0,-38.1879783,146.5178183
Perth (West) - Northbridge,WA,6.2,5.8,4.108397457343593,22,0.0,1041.0,0.0,-31.948815,115.8575082
Port Kennedy,WA,6.2,1.3,0.9937776548672568,16,60.0,981.0,188.0,-32.3704685,115.7527396
Oatley - Hurstville Grove,NSW,6.2,1.2,0.0749267475931352,15,13.0,1083.0,304.0,-33.9768745,151.0976003
Elwood,VIC,6.2,3.2,0.1962826950460915,17,8.0,1083.0,168.0,-37.8788568,144.9855487
Doonside - Woodcroft,NSW,6.2,0.7,0.279079721776351,16,22.0,963.0,128.0,-33.7623581,150.8833988
Botany,NSW,6.1,1.9,0.7532451005344871,22,108.0,1053.0,112.0,-33.947829,151.1990644
Sydney (North) - Millers Point,NSW,6.1,2.0,0.7516211436431519,13,2.0,1063.0,0.0,-33.8523817,151.2107399
Lakes Entrance,VIC,6.1,0.4,0.3545062320230105,22,27.0,955.0,300.0,-37.877796,148.0023918
Dee Why (South) - North Curl Curl,NSW,6.0,0.4,0.1730121083510173,20,10.0,1082.0,2424.0,-33.7656245,151.302272
Canterbury - South,NSW,6.0,1.8,0.6868518755601075,20,25.0,977.0,56.0,-33.9167703,151.1085257
Mosman - North,NSW,6.0,0.4,0.0873418680402999,16,49.0,1107.0,532.0,-33.8429708,151.2437273
Albion,QLD,6.0,2.4,1.2145153881488286,22,2.0,1078.0,344.0,-27.4302232,153.0420578
Woree,QLD,6.0,0.9,0.2279841158607801,14,469.0,872.0,24.0,-16.960466,145.7448849
Benalla,VIC,6.0,0.8,0.062743950039032,16,62.0,950.0,252.0,-36.5517611,145.9833562
McDowall,QLD,6.0,2.3,0.2855648535564853,20,25.0,1094.0,64.0,-27.3886299,152.9967591
North Parramatta,NSW,6.0,0.4,0.3856665298222978,19,47.0,1007.0,180.0,-33.7952747,151.0116649
Hallam,VIC,5.9,1.5,0.3304744932056137,20,10.0,917.0,144.0,-38.0179565,145.2703131
Strathpine - Brendale,QLD,5.9,2.2,0.3634890629219551,22,4.0,956.0,128.0,-27.3085748,152.9855437
Bridgeman Downs,QLD,5.9,3.1,0.9013190034196384,22,44.0,1104.0,172.0,-27.3562082,152.9944728
New Norfolk,TAS,5.9,1.0,0.2302991315535542,21,40.0,892.0,184.0,-42.7801998,147.0615332
Werribee - South,VIC,5.8,0.6,0.8407388404309902,22,37.0,1005.0,156.0,-37.939627,144.697546
Greensborough,VIC,5.8,1.7,-0.0009831460674157,15,11.0,1070.0,184.0,-37.7037383,145.1079105
Taylors Lakes,VIC,5.8,0.4,-0.0250057352603808,9,9.0,1042.0,144.0,-37.698633,144.7863077
Waratah - North Lambton,NSW,5.8,0.2,0.1157031850397062,19,17.0,992.0,84.0,-32.9023676,151.7312067
Pimpama - South,QLD,5.7,4.0,20.0,18,4.0,977.0,24.0,-27.8161679,153.2924022
Floreat,WA,5.7,2.3,0.2821248122354226,21,14.0,1118.0,68.0,-31.9392096,115.7939626
Gatton,QLD,5.7,3.8,0.4476773020333939,20,6.0,882.0,56.0,-27.5615314,152.2791353
City Beach,WA,5.7,1.3,0.0857568978374347,13,9.0,1118.0,68.0,-31.9364674,115.7599058
Goonellabah,NSW,5.7,1.2,0.149672131147541,21,41.0,969.0,300.0,-28.815,153.3177777
Wodonga,VIC,5.7,0.5,-0.0114255347415969,10,38.0,920.0,344.0,-36.1205539,146.8880837
Fulham,SA,5.7,2.7,0.155268022181146,17,19.0,1051.0,196.0,-27.0335324,152.4710369
Iluka - Burns Beach,WA,5.6,3.0,2.443393251340271,22,43.0,1113.0,240.0,-31.741832,115.7244454
Glenfield,NSW,5.5,0.7,0.5126555726471822,18,15.0,1008.0,144.0,-33.9722422,150.8930882
Edens Landing - Holmview,QLD,5.5,4.8,1.1743779160186625,22,26.0,974.0,484.0,-27.7111283,153.1747572
Coolbellup,WA,5.5,2.8,0.2634264232008593,20,26.0,994.0,244.0,-32.0812445,115.8060784
Eden,NSW,5.5,1.0,0.0279263220439691,14,1.0,910.0,582.0,-37.0640494,149.9035118
Somerville,VIC,5.5,0.9,0.1475836206375128,17,17.0,1036.0,320.0,-38.22542,145.1763347
Mill Park - South,VIC,5.5,0.3,-0.1723558219428404,4,7.0,989.0,948.0,-33.9350957,150.9209348
Bulimba,QLD,5.5,1.5,0.9166869079426768,21,27.0,1099.0,100.0,-27.4491865,153.0604866
Frankston North,VIC,5.4,0.4,-0.0192279175522712,14,19.0,925.0,128.0,-38.1228524,145.1609788
Dover Heights,NSW,5.4,1.2,0.1085902656583284,17,17.0,1099.0,236.0,-33.8739831,151.2810366
Griffith (ACT),ACT,5.4,5.5,0.4424196405973171,17,4.0,1105.0,638.0,-35.3207083,149.1322739
Mulgoa - Luddenham - Orchard Hills,NSW,5.4,2.6,1.2067574382249118,22,25.0,1065.0,216.0,-33.8371562,150.6504013
Highgate Hill,QLD,5.4,4.0,0.360770247309798,18,14.0,1036.0,148.0,-27.4878705,153.0179822
Cranbourne East - North,VIC,5.4,1.2,20.0,22,49.0,1001.0,68.0,-38.1177554,145.3194587
Wagga Wagga - North,NSW,5.4,2.6,1.0085582620144833,22,35.0,1053.0,40.0,-35.0782237,147.4151016
Denistone,NSW,5.3,0.9,0.0915202444614209,15,19.0,1087.0,344.0,-33.7989066,151.0887
Gladstone Park - Westmeadows,VIC,5.3,0.5,-0.0311372798642053,10,16.0,979.0,200.0,-37.6880979,144.882367
Belmont,VIC,5.3,0.9,0.0687804533578137,15,19.0,1014.0,172.0,-27.5147784,153.1268563
Craigieburn - West,VIC,5.3,3.6,20.0,22,52.0,934.0,296.0,-37.5955765,144.9792512
Jacka,ACT,5.2,-1.4,20.0,8,158.0,1025.0,8.0,-35.1495163,149.1304298
Reedy Creek - Andrews,QLD,5.2,1.9,1.7215371379409234,22,11.0,1066.0,164.0,-37.240673,145.1494819
Ormeau (East) - Stapylton,QLD,5.2,2.3,8.026093630084421,22,30.0,1019.0,224.0,-27.774813,153.2520815
Craigie - Beldon,WA,5.2,2.7,0.0594367227505486,13,23.0,1034.0,280.0,-31.7774894,115.7710332
Hunters Hill - Woolwich,NSW,5.2,-0.3,-0.0133255519891061,12,12.0,1111.0,84.0,-33.8384887,151.1761967
Maryborough (Qld),QLD,5.2,0.5,0.1012694419030192,17,29.0,853.0,132.0,-25.5249178,152.6995453
Mawson Lakes - Globe Derby Park,SA,5.2,1.1,9.43675751222921,21,10.0,1033.0,4.0,-34.8104796,138.6111791
Gowrie (Qld),QLD,5.2,3.7,0.9861495844875346,22,23.0,1044.0,348.0,-26.2299182,146.3162565
Dandenong North,VIC,5.2,1.7,0.0091818614924855,14,15.0,926.0,168.0,-37.9558319,145.2143234
Winchelsea,VIC,5.2,2.6,0.2840007381435689,21,34.0,1054.0,264.0,-38.2419077,143.9859604
Langwarrin,VIC,5.1,0.7,0.3731534318169697,21,13.0,1040.0,204.0,-38.1545829,145.1973931
Katoomba - Leura,NSW,5.1,0.6,0.0215887495248954,12,14.0,993.0,324.0,-33.7130643,150.320161
Lyons (NT),NT,5.1,3.1,20.0,19,11.0,1104.0,112.0,-12.3581929,130.8879253
Viewbank - Yallambie,VIC,5.1,-0.2,0.0404466093809862,14,32.0,1066.0,132.0,-37.7399103,145.0932329
